COMPOUND_K;FELTNR;STATION_NA;AREAL_NOR;AREAL_UTM3;GRAD_1085;GRAD_FELT;GRAD_ELV;HEIGHT_MIN;HEIGHT_10;HEIGHT_20;HEIGHT_30;HEIGHT_40;HEIGHT_50;HEIGHT_60;HEIGHT_70;HEIGHT_80;HEIGHT_90;HEIGHT_MAX;FELT_LE_KM;ELV_LE_KM;JORDBRUKPR;MYRPRO;EFF_MYR;EFF_SJO;SKOGPRO;BREPRO;SJOPRO;SNAUFJPRO;URBANPRO;latitude;longitude;utm_east_z33;utm_north_z33
2200022000;846;Søgne;203.58;203.58;6.54;24.21;7.13;6;57;108;144;173;198;224;250;278;311;485;29.63;50.35;4.99;5.99;0;0.09;81.51;0;3.88;0.11;1;58.09098053;7.835107803;78051;6461281
2200004000;831;Kjølemo;1757.7;1757.7;44.27;24.14;33.26;10;218;288;367;455;560;678;767;836;904;1160;102.17;6.42;1.28;6.15;0;0.38;47.14;0;7.88;33.02;0.04;58.12024307;7.528130054;60379;6466492
2400008000;860;Møska;121.41;121.41;14.61;29.33;17.98;8;221;260;288;308;325;343;369;400;454;613;19.54;30.49;0.97;3.08;0;1.71;76.92;0;9.04;8.44;0;58.16056442;7.066228867;33807;6474075
2500007000;869;Refsti;202.68;202.68;8.8;31.29;12.88;27;151;195;223;253;290;321;348;381;426;596;26.73;33.52;2.79;4.34;0;1.88;76.16;0;9.8;4.97;0.01;58.27428818;6.822276115;21055;6488397
2600008000;919;Lundevatn;1899.71;1899.71;7.6;30.6;7.44;49;255;400;505;596;693;775;850;921;1035;1420;116.37;149.16;1.04;1.52;0;2.66;22.88;0;12.26;56.06;0.1;58.31302643;6.49450922;2467;6495075
2000003000;777;Flaksvatn;1780.66;1780.66;7.06;22.36;6.72;19;197;229;261;300;354;434;520;616;741;1146;96.69;129.69;0.76;7.85;0;0.6;74.44;0;7.64;5.92;0.07;58.33046341;8.203061104;102367;6485613
2600029000;908;Refsvatn;52.95;52.95;18.38;38.24;20.38;35;174;223;240;266;297;329;355;387;428;545;12.99;16.67;1.59;1.08;0;1;22.7;0;9.3;58.68;0;58.35037613;6.344214916;-5758;6500337
2500030000;863;Stegemoen;1147.61;1147.61;7.46;25.69;8.94;123;386;557;698;785;847;896;936;1015;1106;1431;98.44;138.79;0.57;2.1;0;1.91;15.3;0;13.3;65.16;0.01;58.36577606;6.956398964;30106;6497589
2600064000;920;Rekedalselv;10.11;10.11;3.41;34.05;15.72;107;140;161;176;189;205;221;237;253;266;311;4.63;5.49;1.19;2.27;0;1.4;37.88;0;7.02;47.58;0;58.37135315;6.250346184;-10919;6503373
2400009000;861;Tingvatn;272.16;272.16;12.2;27.31;14.8;185;318;426;486;540;588;623;660;707;767;964;30.26;42.95;1.15;6.13;0;3.12;37.08;0;9.51;36.52;0.03;58.40113831;7.223348141;46112;6499670
2600007000;888;Sirdalsvatn;1528.16;1528.16;9.23;29.86;8.18;50;386;535;633;708;774;833;899;960;1065;1421;100.13;122.61;0.66;1.5;0;1.79;17.87;0;11.7;63.44;0.02;58.42679214;6.666283131;14055;6506420
1900107000;770;Lilleelv;39.32;39.32;3.9;15.91;7.9;17;41;54;65;78;86;96;105;117;131;205;13.96;17.59;4.05;1.61;0;2.05;87.66;0;5.09;0;0.46;58.43535614;8.702689171;132635;6494410
2200016000;840;Myglevatn ndf.;182.2;182.2;6.23;20.51;11.26;252;336;371;399;424;447;471;499;525;571;741;23.75;37.55;0.39;12.07;0;1.53;63.59;0;5.5;10.98;0;58.44588852;7.584990978;67715;6502242
2700042000;2309;Slevelandsåna;5.42;5.42;-999;0;-999;51;73;78;86;96;108;121;133;143;158;227;4.15;-999;10.15;1.85;0;0.34;35.06;0;1.29;20.48;0;58.48777771;6.033732891;-21789;6517935
2600021000;900;Sandvatn;27.5;27.5;17.88;25.02;14.41;306;345;384;428;443;470;493;517;544;571;647;6.27;14.13;1.38;8.8;0;2.44;44.51;0;10.04;34.87;0;58.4896698;6.773128986;21124;6512618
2500008000;870;Mygland;46.93;46.93;10.87;29.08;19.32;329;437;469;501;529;555;583;621;677;729;876;16.3;20.49;0.43;8.82;0;0.47;15.98;0;5.11;30.11;0;58.51194763;7.020081043;35750;6513347
2700024000;939;Helleland;184.72;184.72;15.16;35.71;16.98;86;184;215;315;401;489;543;592;636;683;904;27.36;34.56;4.08;1.12;0;1.15;22.62;0;8.35;48.35;0.03;58.53359985;6.150288105;-14357;6522106
2600020000;899;Årdal;77.25;77.25;23.37;35.58;32.05;113;245;340;402;449;478;505;534;568;602;748;13.08;17.69;2.16;2.24;0;2.27;38.08;0;8.98;24.64;0;58.54366684;6.497912884;5920;6520601
2700025000;940;Gjedlakleiv;635.15;635.15;13.59;36.96;13.5;49;185;269;342;433;527;613;673;726;788;1011;48.65;58.73;2.63;0.87;0;1.48;17.48;0;12.3;52.94;0.07;58.5734024;6.066195011;-18636;6527163
2200005000;832;Austerhus;413.48;413.48;10.92;27.01;12.73;261;485;554;608;663;717;770;825;882;940;1160;46.85;69.35;0.66;4.93;0;0.63;40.55;0;7.41;41.89;0.02;58.61302567;7.42061615;60261;6521849
1800004000;714;Lundevatn;407.75;407.75;-999;20.77;-999;1;100;142;175;189;204;226;251;281;329;506;27.38;-999;1.9;4.59;0;2.24;83.56;0;8.77;0;0.07;58.66829681;8.977776527;150984;6518807
2700015000;931;Austrumdal;60.85;60.85;20.6;39;20.99;309;435;546;596;629;659;680;704;739;788;933;16.04;24.14;0.26;1.18;0;5.48;11.36;0;13.18;66.92;0;58.68186188;6.23082304;-7531;6537908
2700016000;932;Bjordal;123.81;123.81;-999;37.51;-999;212;519;603;650;688;719;743;769;798;829;965;16.51;-999;0.06;1.34;0;0.31;9.09;0;9.04;73.05;0;58.68575668;6.492358208;7608;6536382
2800007000;949;Haugland;139.35;139.35;10.25;15.81;9.3;16;61;97;115;152;178;209;244;264;301;432;17.31;27.31;20.18;1.35;0;0.43;7.15;0;6.11;61.26;0.19;58.69290924;5.647571087;-40981;6543711
1900080000;752;Stigvassåi;14.49;14.49;11.9;21.83;31.5;148;187;208;225;241;263;283;304;325;356;429;6;7.11;1.22;4.37;0;0.24;91.4;0;1.79;0;0;58.74980927;8.51558876;125128;6530359
2600006000;887;Lindeland;962.94;962.94;9.74;28.36;9.89;238;660;723;783;835;887;918;970;1034;1121;1421;62.4;82.02;0.38;0.77;0;1.27;10.27;0;12;73.6;0;58.76689148;6.743857861;23231;6543546
2000002000;776;Austenå;276.42;276.42;11.44;22.42;13.23;228;602;666;708;738;763;792;819;852;895;1146;41.58;52.78;0.07;5.59;0;1.61;61.87;0;11.9;20.28;0;58.83963394;8.100524902;102216;6542728
2600005000;886;Dorgefoss;808.53;808.53;6.61;27.02;9.28;463;685;764;824;877;906;948;998;1058;1139;1420;51.64;74.85;0.27;0.79;0;1.81;8.17;0;12.97;75.23;0.02;58.8594017;6.790644169;27190;6553464
2500002000;864;Kvinen;481.9;481.9;5.44;22.76;10.81;715;842;897;932;960;1003;1036;1075;1128;1204;1430;42.29;61.96;0;0.64;0;9.87;0.3;0;18.2;80.84;0;58.87005997;7.067547798;43230;6552716
2900007000;958;Gramstaddalen;0.995;1;232.93;32.9;91.73;96;162;174;179;187;200;212;212;238;261;341;0;0.8;0;6.52;0;0;69.57;0;0;22.83;0;58.88154221;5.786897182;-30058;6563467
1800010000;718;Gjerstad;236.23;236.23;-999;23.43;-999;50;148;197;237;274;313;346;380;415;473;657;21.15;-999;1.4;4.87;0;0.19;81.76;0;3.45;2.9;0.07;58.88360596;9.03327179;156332;6542433
1800011000;719;Tjellingtjernbekk;1.95;1.95;-999;22.04;74;223;254;281;317;354;377;393;412;441;458;499;2.4;1.67;0;0;0;1.53;51.28;0;0;0;0;58.93208313;8.859376907;146830;6548724
2600004000;885;Fidjelandsvatn;643.06;643.06;8.47;26.62;8.79;566;733;818;878;903;938;981;1027;1085;1160;1420;41.13;55.16;0;0.62;0;2.45;6.53;0;13.53;76.81;0;58.95141983;6.926516056;36229;6562707
1900082000;753;Rauåna;8.929;8.93;25.79;35.94;29.66;222;289;313;345;371;396;396;447;488;537;760;6.75;6.99;0.34;2.24;0;0;90.71;0;0.11;1.23;0;58.96851349;8.508176804;127065;6554680
1900073000;747;Kilåi Bru;64.373;64.37;21.58;21.95;26.68;273;576;596;621;644;667;697;733;759;795;924;11.02;18.76;0;5.16;0;2.38;55.55;0;9.26;13.78;0;59.00203705;8.299213409;115460;6559587
3200006000;978;Liarvatn;55.85;55.85;44.57;33.72;83.03;300;417;470;517;558;601;620;652;688;726;849;11.11;3.14;0;0.7;0;4.2;27.45;0;14.13;53.59;0;59.04922867;6.118229866;-8583;6579444
1900096000;763;Storgama ovf.;0.523;0.52;25.07;20.23;26.07;581;590;598;606;607;610;615;623;633;645;680;1.12;0.95;0;1.92;0;4.71;23.08;0;11.54;61.54;0;59.05231476;8.65362072;136291;6563180
3100002000;970;Lysedalen;47.06;47.06;61.62;43.82;59.1;78;610;761;833;875;899;925;951;951;1013;1109;11.55;14.1;0;0.02;0;0.84;7.77;0;7.01;84.64;0;59.06354523;6.703454971;25011;6576704
1900076000;748;Tovsliøytjønn;116.05;116.05;159.82;22.55;126.75;536;624;663;696;715;739;768;802;848;896;1003;12.97;0.61;0.14;6.14;0;3.05;60.46;0;13.37;18.88;0;59.06933594;8.011397362;99766;6568750
1500174000;2385;Istreelva vannstand;25.58;25.58;2.59;0;3.38;10;21;25;30;34;36;39;44;52;65;113;6.36;10.82;49.41;1.21;0;0.03;44.21;0;0.47;0;1.84;59.07536316;10.18259525;223988;6558407
2600015000;894;Svartevatn;208.85;208.85;2.72;23.98;10.07;754;899;921;966;1010;1051;1087;1125;1168;1222;1421;22.02;29.59;0;0.01;0;15.04;0.17;0;21.7;77.46;0;59.1220932;6.897863865;36897;6581821
3300002000;983;Tveid;512.31;512.31;21.11;32.61;23.94;46;472;636;731;805;877;934;990;1045;1100;1269;38.52;47.7;0.4;0.62;0;1.37;9.37;0;13.75;70.72;0.01;59.1341629;6.245946884;-55;6587880
3300011000;990;Bergeland;154.66;154.66;31.83;40.35;28.43;66;217;513;669;775;842;889;927;988;1040;1154;31.2;34.85;0.11;0.23;0;6.35;14.67;0;12.17;67.92;0;59.1358757;6.26329422;958;6587939
2500024000;879;Gjuvvatn;96.82;96.82;15.78;24.27;20.48;950;1020;1041;1074;1106;1139;1175;1219;1271;1314;1431;12.7;20.61;0;0.19;0;6.96;0;0;16.4;83.31;0;59.15917587;7.214805126;55441;6583769
1900078000;750;Grytå;19.31;19.31;21.46;23.14;29.75;625;662;707;752;774;789;814;837;865;896;1007;6.59;8.35;0;2.24;0;5.6;37.02;0;14.85;42.31;0;59.17243958;8.344135284;119926;6578243
3300010000;989;Sandvatn;70.4;70.4;30.58;22.92;23.45;849;955;1003;1030;1058;1083;1108;1134;1157;1191;1269;11.76;9.59;0;0.03;0;1.9;0;0;12.32;87.67;0;59.18209076;6.704697132;26725;6589830
1500062000;594;Hagnes;242.39;242.39;2.4;19.07;2.55;18;47;63;78;91;103;122;150;184;246;449;22.47;37.82;16.81;0.8;0;0.79;77.58;0;2.4;0;0.36;59.19249344;10.08644009;219446;6571829
1900063000;742;Finndøla;387.87;387.87;11.44;24.72;19.42;293;614;699;745;789;836;878;915;968;1038;1280;29.34;48.71;0.22;4.74;0;1.67;57.4;0;11.47;24.27;0;59.22967911;8.076856613;105361;6586151
1900079000;751;Gravå;6.31;6.31;108.57;25.58;105.4;362;503;559;605;615;659;735;805;876;933;1063;4.53;5.57;3.8;4.6;0;0.03;69.41;0;0.32;17.27;0;59.23484421;8.036405563;103121;6586966
3500016000;1003;Djupadalsvatn;45.34;45.34;38.79;25.65;35.23;338;386;456;522;589;626;681;736;787;894;1128;13.2;20.22;0;3.79;0;3.54;33.08;0;10;46.1;0;59.28070068;6.380723953;9729;6603103
1900104000;767;Songedalsåi;65.516;65.52;18.61;20.98;14.72;555;633;690;736;759;777;800;829;861;903;1175;11.91;15.69;0.12;8.44;0;1.23;72.21;0;3.72;12.27;0;59.29985428;7.985102177;100967;6594486
3900001000;1054;Tysvær;3.345;3.34;1.48;3.75;6.36;10;20;21;23;24;25;28;29;30;35;64;3.24;3.61;0.3;17.37;0;15.11;8.68;0;18.86;0;0;59.32949066;5.443241119;-42586;6615801
3500002000;992;Hauge Bru;393.88;393.88;24.21;30.25;21.26;23;605;732;852;995;1055;1099;1148;1180;1229;1597;39.18;56.1;0.1;0.58;0;0.78;10.12;0;17.66;70.28;0.08;59.32967377;6.449042797;14303;6608024
1600194000;702;Kilen;118.47;118.47;17.5;31.12;27.17;120;249;342;405;450;491;532;569;632;740;1070;15.52;27.06;0.61;1.51;0;0.85;81.08;0;4.85;9.26;0;59.34851456;8.785969734;146937;6595356
200633000;2281;Stortorp;87.13;87.13;5.12;0;6.42;111;120;138;151;163;178;189;201;213;227;323;13.21;16.68;4.12;5.39;0;0.42;86.26;0;3.72;0;0.03;59.35951996;11.51775646;302085;6585263
3500009000;997;Osali;22.46;22.46;39.89;37.46;45.76;643;707;746;789;828;871;908;971;1039;1099;1345;5.73;11.07;0;1.33;0;4.92;5.88;0;12.3;80.44;0;59.41426086;6.622463226;25306;6616138
1600193000;701;Hørte;156.65;156.65;10.25;28;29.89;96;260;311;369;429;502;579;672;771;913;1204;17.88;27.2;1.08;2.81;0;0.27;73.05;0;3.14;18.38;0.05;59.43141937;9.133699417;167474;6602769
1600051000;635;Hagadrag;726.98;726.98;16.11;32.09;15.18;115;325;536;659;747;820;886;953;1031;1114;1536;53.94;72.44;2.15;3.85;0;2.44;60.65;0;5.95;21.24;0.11;59.43201065;8.874759674;152829;6604160
3600012000;1013;Fossåna;10.712;10.71;157.53;42.01;147.33;95;347;474;521;627;627;695;695;814;857;932;3.72;5.38;0;0.75;0;0.24;51.45;0;1.68;45.66;0;59.45318985;6.357682228;10922;6622375
4100005000;1059;Stakkastadvatn;33;33;16.85;0;14.47;11;14;26;36;44;58;79;118;153;186;308;6.19;9.26;4.27;7.45;0;8.32;15.61;0;11.45;1.39;0;59.47909927;5.377064228;-43911;6632890
3900002000;2278;Kallandsvatnet;7.68;7.68;18.41;0;35.29;10;11;21;27;32;37;44;53;68;101;241;4.88;5.29;1.69;9.51;0;7.91;33.59;0;13.8;0.78;0;59.47960281;5.305838108;-47910;6633533
3600011000;1012;Stråpa;1304;1304;10.32;35.26;15.7;69;499;744;875;985;1065;1143;1222;1305;1414;1686;68.9;87.35;0.31;0.38;0;2.63;16.33;0.54;8.82;69.94;0;59.48908234;6.515632153;20339;6625195
3800001000;1053;Holmen;116.88;116.88;29.53;0;30.63;12;158;276;378;471;556;620;685;763;846;1185;18.81;32.99;4.99;1.39;0;1.56;30.45;0;7.95;43.44;0.03;59.49917221;5.91403389;-13383;6630822
3600032000;1032;Lauvastøl;20.72;20.72;97.59;40.25;85.82;618;719;843;917;968;1044;1124;1193;1251;1295;1421;5.74;8.07;0;0.92;0;0.38;13.51;0;2.51;81.37;0;59.50566483;6.70616293;31304;6625669
1600189000;698;Bjørntjønn;34.62;34.62;10.48;23.86;17.38;526;651;673;694;717;734;744;763;794;849;1021;8.33;12.42;0.29;5.53;0;1.46;87.94;0;4.98;0.49;0;59.54476166;8.015879631;105579;6621475
1200106000;450;Vikevatn;133.48;133.48;-999;18.12;-999;37;60;79;100;121;152;181;216;298;403;625;14.4;-999;15.63;0.53;0;2.34;78.75;0;3.21;0;1.09;59.54532623;10.10043335;223137;6610991
300022000;330;Høgfoss;299.29;299.29;3.34;0;3.29;47;94;110;122;138;153;169;184;202;227;347;34.29;62.66;20.02;1.19;0;0.56;71.73;0;2.39;0;1.43;59.55160904;10.8561039;265842;6608781
3600013000;1014;Grimsvatn;34.54;34.54;24.57;39.06;51.59;563;663;708;747;784;833;900;995;1065;1194;1535;7.63;8.19;0;0.69;0;1.29;5.56;0;3.16;87.61;0;59.58158493;6.539578915;23002;6635268
201036000;323;Hæra v/Løkkeborg;132.84;132.84;1.38;0;6.46;127;138;153;160;169;178;189;201;217;236;329;18.17;27.09;21.29;2.77;0;0.32;70.64;0;3.09;0;0.15;59.59277344;11.4011364;296867;6611566
1600108000;668;Gjevarvatn;33.25;33.25;22.22;26.62;22.55;683;698;734;766;794;819;859;898;934;968;1167;9.51;13.9;0.75;5.65;0;5.47;75.4;0;8.39;4.33;0;59.60220718;8.348041534;124937;6625923
2100047000;822;Lislefjødd;19.01;19.01;37.65;16.24;48.06;890;1046;1070;1089;1106;1127;1159;1220;1288;1345;1432;7.76;10.38;0;12.41;0;0.05;5.05;0;2.21;79.8;0;59.6088295;7.419619083;72814;6632279
1600010000;612;Omnefoss;807.71;807.71;19.16;27.98;22.82;61;414;612;718;796;852;909;965;1029;1135;1870;40.53;57.95;1.64;4.9;0;0.21;60.19;0;6.06;18.79;0.01;59.61171341;8.99323082;161342;6623505
1600122000;677;Grovåi;42.69;42.69;25.36;24.65;20.47;717;790;822;848;880;914;946;992;1048;1093;1199;12.05;18.53;0;11.64;0;0.27;59.79;0;3.1;21.85;0;59.64139938;8.311717987;123333;6630479
1600075000;645;Tannsvatn;118.28;118.28;12.79;19.71;14.77;697;737;794;835;871;905;923;955;1012;1072;1287;14.61;20.12;1.56;19.48;0;4.59;53.16;0;6.69;16.4;0.12;59.673172;8.067387581;109976;6635419
4100001000;1055;Stordalsvatn;130.61;130.61;34.92;0;36.93;51;89;251;441;583;681;764;864;931;1036;1294;23.07;29.44;3.11;1.05;0;6.68;24.81;0;10.6;57.52;0;59.68293762;6.010889053;-5158;6650416
1200193000;515;Fiskum;51.6;51.6;-999;16.38;-999;84;171;204;227;252;277;310;338;367;475;649;10.99;-999;4.64;2.98;0;0.11;88.39;0;1.26;0;0.08;59.69721222;9.790201187;206957;6629206
1500021000;567;Jondalselv;125.9;125.9;-999;17.65;-999;229;351;416;477;527;574;636;692;724;753;920;19.05;-999;1.29;5.01;0;0.25;77.12;0;3.37;9.45;0.02;59.70734406;9.554798126;193828;6631396
3700027000;1051;Breiborgvatn;12.43;12.43;115.74;38.61;126.07;663;714;752;803;869;972;1048;1131;1231;1314;1534;5.02;6.32;0;0;0;2.81;1.93;0;7.24;90.83;0;59.72269058;6.565025806;26431;6650715
1600109000;669;Veisvikvatn;14.51;14.51;4.27;23.6;16.92;899;909;924;948;975;998;1023;1055;1089;1089;1330;5.95;6.44;0.33;10.21;0;5.36;47.45;0;7.29;25.71;0;59.72656631;8.260268211;121407;6640224
300011000;326;Sagstubekken;3.39;3.39;8.61;0;17.44;154;187;191;194;196;199;201;204;207;213;239;3.11;3.33;0;2.69;0;0.03;96.71;0;0.6;0;0;59.73026657;10.9549408;272635;6628308
3600002000;1015;Røldalsvatn;497.08;497.08;21.4;32.48;26.16;380;792;972;1064;1146;1219;1286;1354;1420;1491;1686;35.73;40.75;0.26;0.41;0;2.29;7.2;1.05;7.84;80.93;0.03;59.75406647;6.789738178;39437;6652603
1600132000;682;Gjuvå;33.1;33.1;34.56;19.75;47.01;459;789;871;953;1012;1084;1138;1170;1243;1324;1619;12.28;17.86;0.36;6.65;0;1.88;27.57;0;7.16;55.02;0;59.75517654;8.794498444;151654;6640467
1600081000;678;Bitdalsvatn;80.16;80.16;24.16;31.21;26.97;973;998;1108;1210;1269;1318;1369;1410;1451;1490;1628;17.57;22.33;0;0.07;0;6.97;8.81;0;10.26;79.53;0;59.78370285;7.947591782;104563;6648393
4200002000;1063;Djupevad;31.9;31.9;61.79;43.06;56.69;88;205;282;348;435;526;652;747;841;924;1152;8.23;14.6;0;1.41;0;0.34;42.56;0;2.79;50.39;0;59.81743622;5.844408035;-12402;6666583
1600066000;643;Grosettjern;6.6;6.6;43.95;18.15;30.84;939;952;965;979;991;1005;1017;1025;1037;1058;1058;2.46;3.52;0;20.22;0;3.06;66.82;0;7.1;2.47;0;59.8355484;8.320614815;126013;6651976
4200016000;1072;Fjellhaugen;7.22;7.22;57.76;40.83;91.13;387;538;590;629;665;685;709;733;757;802;961;3.87;4.92;0;2.91;0;1.08;6.65;0;6.79;75.21;0;59.85847855;6.06270504;383;6669451
1100004000;378;Elgtjern;6.63;6.63;52.48;20.95;41.73;430;457;475;481;493;510;543;595;615;631;673;4.32;4.22;0;6.03;0;3.62;85.67;0;7.99;0.15;0;59.88941956;10.08319759;225005;6649313
800002000;365;Bjørnegårdsvingen;190.19;190.19;19.52;20.24;19.12;5;121;197;262;308;341;372;399;436;493;680;25.32;24.72;6.06;2.9;0;0.07;82.97;0;1.72;0;3.97;59.89347076;10.50813961;248777;6648073
800008000;370;Blomsterkroken;22.54;22.54;19.61;0;27.34;21;103;131;158;182;208;228;262;317;378;458;9.12;14.07;12.42;2.26;0;0.27;73.25;0;1.29;0;7.9;59.90805054;10.56090927;251835;6649495
800006000;368;Sæternbekken;6.23;6.23;62.59;0;60.36;102;173;197;208;221;240;259;280;318;381;420;4.16;4.86;2.41;3.37;0;0.01;93.26;0;0.16;0;0.48;59.94379425;10.56634808;252405;6653449
1500072000;597;Sørkja;36.3;36.3;38.05;20.44;35.84;246;710;746;755;779;799;820;849;890;960;1209;11.03;16.19;0;8.86;0;5.38;67.38;0;10.9;9.77;0;59.95459366;9.299316406;181856;6660072
4500004000;2300;Seimsfoss i Guddalselv;36.38;36.38;-999;0;-999;19;240;428;583;675;782;872;955;1025;1100;1419;13.58;-999;2.25;0.22;0;1.08;18.42;2.69;5.47;53.16;0;59.96468735;6.000270844;-1482;6681681
4800005000;1098;Reinsnosvatn;120.5;120.5;85.81;31.53;82.17;595;763;940;1060;1174;1232;1278;1325;1379;1442;1635;11.01;10.66;0.11;0.54;0;3.3;9.53;1;9.38;76.37;0;59.96939468;6.725261211;38833;6676909
600010000;343;Gryta;7.03;7.03;45.25;21.04;43.68;165;234;263;283;294;300;310;327;346;366;435;3.41;4.86;0;1.56;0;0.41;94.47;0;2.84;0;0;59.98722839;10.80065823;265785;6657426
4800001000;1094;Sandvenvatn;470.22;470.22;34.99;35.74;31.31;87;575;727;866;985;1090;1177;1253;1328;1429;1651;26.4;42.32;0.41;0.89;0;1.21;21.44;7.39;6.52;59.63;0.06;60.01389313;6.548137188;29632;6683089
1600140000;687;Kvenna;822.26;822.26;3.53;16.21;8.43;937;1153;1197;1232;1260;1285;1310;1334;1362;1400;1620;48.7;61.56;0;3.44;0;0.99;0.96;0.04;9.67;85.08;0;60.01842117;7.865456104;102789;6674926
1200113000;455;Kråkefjord ndf.;702.16;702.16;-999;22.23;-999;103;228;354;427;495;597;703;788;892;1001;1463;46.05;-999;2.45;8.17;0;1.21;69.37;0;4.39;10.71;0.06;60.04320526;9.634025574;201308;6668354
4800004000;1097;Jordal;51.26;51.26;143.11;36.23;120.31;109;662;926;1114;1236;1364;1476;1528;1565;1591;1651;11.14;9.09;0.08;0;0;0.13;11.96;56.54;1.17;28.37;0;60.04367828;6.531559944;29138;6686507
4600009000;1081;Fønnerdalsvatn;7.01;7.01;313.53;40.83;238.05;590;859;1094;1174;1287;1371;1423;1470;1521;1560;1621;4.97;2.27;0;0;0;1.82;2;47.36;3.99;46.65;0;60.06708145;6.283018112;15716;6690900
1200099000;446;Skålfoss;5126.71;5126.71;-999;21.39;-999;111;486;730;860;949;1017;1091;1177;1289;1463;1930;152.17;-999;1.8;6.79;0;1.05;40.25;0.78;6.38;39.59;0.18;60.0786705;9.833348274;212697;6671411
200331000;206;Kauserud;91.2;91.2;2.94;7.16;6.34;130;155;161;166;172;177;183;200;209;223;345;18.23;22.83;41.54;3.17;0;0;53.65;0;0.13;0;0.89;60.08368683;11.26531029;292288;6666602
200329000;205;Hellen Bru;81.75;81.75;11.09;12.52;15.67;126;172;205;255;281;301;321;342;365;393;560;14.99;23.66;11.2;6.31;0;0.34;77.03;0;3.28;0;1.3;60.08914566;11.04089642;279853;6667936
4600004000;1076;Bondhus;60.5;60.5;86.55;44.43;118;23;440;782;954;1094;1236;1364;1463;1545;1590;1649;11.32;10.28;0.35;0.12;0;1.05;11.48;40.08;3.24;42.02;0;60.11621857;6.268717766;15649;6696446
1600127000;679;Viertjern;46.8;46.8;20.61;13.97;20.26;1104;1173;1196;1211;1233;1258;1268;1285;1303;1334;1450;9.17;12.29;0;1.97;0;1.74;0;0;9.83;88.18;0;60.12529373;8.450204849;136450;6683413
200279000;168;Kråkfoss;432.35;432.35;8.24;15.52;9.3;105;180;204;313;388;445;494;533;567;622;803;40.82;67.41;11.2;4.89;0;0.41;75.75;0;4.05;0.04;1.03;60.13344574;11.08010387;282324;6672734
1200178000;507;Eggedal;309.77;309.77;-999;25.78;-999;170;394;561;689;777;846;908;960;1007;1071;1463;29.88;-999;1.62;7.74;0;0.58;59.54;0;3.14;21.57;0.03;60.1517601;9.434388161;191232;6681335
4600003000;1075;Øyreselv;82.74;82.74;64.61;39.99;76.71;113;756;943;1057;1090;1151;1151;1311;1390;1482;1644;10.57;15.62;0;0.02;0;1.67;3.3;25.26;9.6;59.48;0;60.15764618;6.317550182;18955;6700674
600071000;354;Sinnerdammen;7.63;7.63;-999;0;-999;482;507;521;533;545;558;571;584;598;616;660;3.92;-999;0;4.46;0;1.89;91.35;0;4.06;0;0;60.17264938;10.49514389;250170;6679166
4800002000;1095;Raundalsvatn;10.76;10.76;144.5;45;191.54;660;768;968;1080;1192;1306;1424;1504;1564;1606;1641;3.49;2.66;0;0;0;2.58;0.65;49.19;2.8;46.36;0;60.18398666;6.516520977;30314;6702153
200287000;173;Rotua;55.88;55.88;19.4;17.12;22.77;199;316;358;399;436;470;491;509;526;549;649;10.34;14.9;0.09;4.6;0;0.89;90.15;0;4.73;0;0;60.20543671;10.94706059;275434;6681187
1200114000;456;Garhammerfoss;492.53;492.53;-999;19.48;-999;131;213;256;320;389;446;507;570;639;797;1227;34.75;-999;2.39;3.27;0;0.28;82.42;0;3.38;6.67;0.19;60.20689011;10.02328205;224321;6684852
200280000;169;Kringlerdal;265.44;265.44;10.22;15.44;11.31;175;312;394;441;482;519;546;571;605;655;807;28.68;49.79;2.82;6.48;0;1.06;83.85;0;5.55;0.06;0.26;60.23630905;10.99043655;278045;6684475
1200069000;425;Randsfjord;3691.47;3691.47;-999;14.84;-999;130;258;390;468;543;633;752;850;940;1024;1681;136.28;-999;5.27;10.93;0;3.87;61.85;0;7.23;7.01;0.29;60.24184036;10.37839317;244242;6687307
5500007000;1138;Eikelandsosen;42.72;42.72;40.66;32.11;46.09;48;83;178;320;443;512;572;635;713;785;971;9.8;17.81;2.86;0.8;0;6.17;27.67;0;12.94;49.27;0.02;60.24410629;5.763690948;-10250;6714418
5500004000;1136;Røykenes;50.09;50.09;27.55;43.36;43.81;53;78;127;189;257;307;363;452;552;665;960;15.92;18.5;0.46;0.76;0;2.24;52.16;0;3.9;31.66;0.22;60.24881363;5.441903114;-27867;6717480
200122000;81;Skarnes;19878.962;20300.47;1.4;12.52;1.61;128;278;381;493;622;721;801;881;971;1104;2170;295.05;458.22;3.29;9.9;0;0.07;57.16;0;2.92;20.45;0.18;60.25431442;11.67747021;316154;6684364
1500019000;565;Fønnebøfjord;686.77;686.77;-999;16.21;-999;462;821;989;1076;1124;1164;1197;1223;1253;1283;1484;45.51;-999;1.33;4.41;0;0.74;20.86;0;6.43;62.8;0.03;60.25570297;8.913599014;163460;6695431
4700001000;1088;Eidevatn;79.21;79.21;69.92;40.96;64.74;67;401;523;681;843;959;1083;1197;1314;1397;1642;13.15;19.24;0;1.22;0;1.39;27.07;8.88;6.7;52.53;0;60.28347778;6.298196793;19737;6714747
1500055000;591;Økta;49.4;49.4;-999;18.76;-999;851;972;996;1023;1046;1079;1114;1159;1191;1226;1308;12.38;-999;0;8.14;0;4.05;26.23;0;9.92;49.76;0;60.30690384;9.050089836;171508;6700427
1500053000;589;Borgåi;94.07;94.07;-999;19.06;-999;770;882;920;956;989;1011;1047;1090;1137;1176;1310;15.93;-999;0.26;11.26;0;0.41;46.68;0;4.26;29.01;0;60.30979156;9.009718895;169312;6700951
1200015000;393;Strømstøa;4631.48;4631.48;-999;19.36;-999;150;432;594;714;821;875;935;998;1076;1278;1907;152.17;-999;2.98;8.57;0;1.17;50.77;0.01;6.94;22.74;0.09;60.31460571;10.13888168;231601;6696349
1500052000;588;Smådøla;98.4;98.4;-999;17.91;-999;740;875;912;942;978;1019;1072;1117;1157;1203;1365;16.86;-999;0.11;10.26;0;0.16;43.81;0;1.93;40.1;0;60.32922363;8.810186386;158522;6704127
5500005000;1137;Dyrdalsvatn;3.31;3.31;78.96;39.66;85.8;436;450;472;493;533;581;624;658;699;749;802;2.16;0.47;0;2.72;0;4.09;0;0;3.93;93.35;0;60.34900665;5.519944191;-21970;6727936
200616000;313;Sagstua;48.38;48.38;10.19;11.03;15.94;171;311;340;357;365;376;389;401;420;443;510;10.35;18.07;0.15;11.31;0;1.15;85.14;0;3.1;0;0;60.35553741;11.73307991;319787;6695475
5000001000;1109;Hølen;232.73;232.73;21.25;25.43;29.39;123;1023;1153;1197;1230;1277;1324;1359;1390;1431;1686;27.94;45.05;0;0.32;0;1.99;1.84;0.34;8.33;88.15;0;60.35738373;6.746254921;45408;6719745
1500079000;602;Orsjoren;1177.29;1177.29;3.38;9.29;4.89;951;1138;1169;1195;1216;1229;1244;1262;1288;1323;1537;60.25;97.89;0;4.61;0;0.04;1.56;0;12.9;79.67;0;60.38209534;8.263917923;129057;6712954
1200286000;543;Jaren ndf.;113.26;113.26;-999;17.08;-999;198;239;274;308;344;374;399;432;487;541;766;19.2;-999;36.5;1.22;0;1.21;44.46;0;2.33;0;2.55;60.40398407;10.53773117;254273;6704730
5000002000;1110;Garen;501.23;501.23;9.39;13.8;12.74;735;1061;1136;1181;1217;1237;1260;1287;1323;1390;1857;27.04;59.87;0.03;4.7;0;1.31;1.86;4.72;7.5;80.4;0;60.40985107;7.281093121;75455;6721981
5000010000;1118;Isdøla;56.62;56.62;37.83;22.62;48.82;702;859;965;1059;1084;1116;1151;1230;1305;1558;1824;10.86;15.61;0.71;6;0;1.81;7.84;7.35;5.74;71.97;0.14;60.41994858;7.263305187;74612;6723215
5000003000;1111;Eidfjordvatn;1166.92;1166.92;376.63;19.49;335.39;19;974;1077;1138;1186;1226;1257;1292;1334;1391;1853;37.36;3.4;0.17;4.36;0;0.58;5.22;2.2;5.47;80.51;0.01;60.44957352;7.09804678;65952;6727580
1200097000;444;Bergheim;4248.54;4248.54;-999;20.82;-999;152;700;850;940;1002;1071;1139;1225;1338;1500;1930;106.81;-999;1.73;7.06;0;0.29;34.63;0.94;6.39;44.73;0.19;60.47192001;9.231314659;183106;6717868
1200212000;527;Hangstjern;11.13;11.13;-999;17.56;-999;586;666;721;754;778;796;810;837;864;914;1047;4.4;-999;0;14.47;0;0.68;77.45;0;2.34;4.76;0;60.47921371;9.448800087;195102;6717650
1200150000;485;Buvatn;24.79;24.79;-999;11.24;-999;840;860;877;902;912;933;962;986;1004;1023;1085;6.15;-999;0.12;14.56;0;4.72;72.21;0;12.34;0.04;0;60.48611069;8.818804741;160638;6721504
1500049000;586;Halledalsvatn;59.13;59.13;-999;12.55;-999;846;886;937;964;994;1028;1049;1066;1082;1101;1185;11.04;-999;0;5.33;0;3.81;61.35;0;5.38;19.62;0;60.4929657;8.479064941;142101;6724067
6100013000;2273;Haukåselva;7.39;7.39;6.37;0;10.72;41;57;68;75;91;108;134;159;198;251;470;3.9;5.03;8.25;2.84;0;0.36;39.65;0;2.71;11.23;4.6;60.50279999;5.360542774;-28193;6746217
5000005000;1113;Sima;125.12;125.12;57.86;28.14;53.68;95;920;1095;1173;1228;1287;1386;1495;1619;1728;1860;14.26;25.86;0;0.63;0;1.1;3.16;28.39;5.29;60.16;0;60.50312424;7.203316212;72422;6732824
1200095000;443;Ustedalsvatn;569.88;569.88;-999;18.97;-999;766;1041;1140;1183;1216;1246;1289;1351;1430;1531;1930;48.99;-999;0.18;2.34;0;3.59;4.88;4.46;10.8;74.91;0.04;60.52527237;8.180508614;126128;6729316
1200209000;526;Urula;542.89;542.89;-999;19.36;-999;221;527;603;679;763;840;897;949;1004;1060;1279;35.28;-999;1.04;5.47;0;0.38;66.23;0;4.5;20.67;0.01;60.5581398;9.875691414;219200;6724518
6100008000;1157;Kaldåen;15.28;15.28;298.11;26.39;261.78;591;777;811;839;865;884;904;928;955;1001;1128;6.05;1.44;0;0;0;0.1;0;0;0;91.62;0;60.56048584;6.041258812;9818;6747309
5100002000;1123;Austdalsvatn øvre;81.89;81.89;15.82;21.08;23.6;1040;1116;1162;1191;1215;1242;1268;1292;1320;1353;1578;13.01;20.48;0;0;0;0.65;0;2.33;9.87;87.72;0;60.58760452;7.142025948;70197;6742588
5100003000;1124;Osseter;26.49;26.49;103.29;35.63;93.47;519;926;1120;1208;1250;1281;1317;1343;1395;1433;1584;6.69;8.59;0;0;0;1.73;1.43;8.08;7.21;79.54;0;60.61927032;7.063445091;66340;6746615
6200005000;1163;Bulken;1092.04;1092.04;17.45;31.52;18.93;47;332;511;652;767;867;967;1058;1147;1253;1602;46.51;70.77;3.37;2.06;0;0.89;32.42;0.39;3.54;53.98;0.36;60.62868118;6.292537212;24518;6753006
6200015000;1172;Kinne;511.44;511.44;21.72;31.21;24.96;95;551;719;826;925;1011;1084;1153;1231;1323;1602;36.45;52.12;0.94;2.05;0;0.05;27.24;0.48;2.84;63.03;0.1;60.63039017;6.499365807;35793;6751712
200142000;95;Knappom;1288.281;1646;3.8;8.42;4.77;170;269;311;342;378;411;446;479;510;556;807;65.17;116.82;2.2;15.93;0;0.1;72.75;0;1.84;0;0.05;60.6411705;12.04712486;338530;6726448
6200018000;1175;Svartavatn;72.35;72.35;32.29;40.83;33.37;219;399;514;594;675;754;821;877;932;984;1109;14.3;21.51;0.58;0.18;0;0.32;21.66;0;3.07;65.46;0;60.65359116;5.899998188;3561;6758676
200288000;174;Harasjøen;51.4;51.4;7.2;9.99;13.05;280;293;310;321;332;340;358;378;401;432;520;7.55;10.82;1.51;5.56;0;3.54;88.43;0;3.8;0;0.21;60.65460205;11.38947582;302673;6729739
200634000;2261;Lena;182.6;182.6;17.07;0;16.19;223;314;359;384;411;431;464;518;570;611;757;22.63;28.9;34.69;9.3;0;0.03;50.5;0;1.35;0;0.6;60.67130661;10.81130505;271220;6733473
6200006000;1164;Austmannhølen;294.1;294.1;21.2;29.73;30.15;560;824;956;1029;1081;1129;1180;1233;1295;1360;1602;19.52;27.76;0.04;1.07;0;0.14;9.02;0.62;4.41;80.9;0;60.68606567;6.822253227;54134;6755635
6200014000;1171;Slondalsvatn;41.86;41.86;43.99;34.49;51.22;752;959;1088;1124;1173;1211;1258;1305;1346;1435;1602;7.91;13.82;0;0.14;0;2.72;1.53;1.89;9.51;83.76;0;60.69053268;6.947995186;61027;6755281
1200171000;502;Hølervatn;79.75;79.75;-999;11.58;-999;780;819;830;842;867;902;936;970;1017;1060;1203;14.21;-999;0.26;17.96;0;2.3;57.12;0;6.56;9.32;0.01;60.70962143;9.458990097;197824;6743203
7200001000;1235;Klevevatn;109.32;109.32;20.58;26.6;24.23;959;1093;1196;1249;1294;1334;1375;1421;1466;1514;1761;16.27;25.98;0;0.38;0;2.44;0;5.71;6.87;86.86;0;60.71787262;7.211500168;75707;6756574
1200147000;483;Brautemotjern;59.1;59.1;-999;9.88;-999;763;815;836;848;858;875;909;965;1024;1077;1286;10.77;-999;4.04;24.65;0;0.16;51.68;0;1.73;11.88;0.08;60.75539017;8.991155624;172825;6750532
6300003000;1181;Fosse;260.45;260.45;15.74;30.61;16.22;414;723;808;860;901;945;975;1014;1066;1127;1426;22.93;38.2;0.43;0.89;0;1.22;5.54;0;8.55;82.75;0.03;60.77370453;6.07055521;14647;6770687
200464000;271;Svartelva;459.03;459.03;9.24;6.91;9.25;138;191;220;241;267;300;334;391;474;546;758;29.2;47.89;20.48;6.54;0;0.19;67.97;0;1.31;0;0.87;60.77607346;11.18653393;292375;6743879
6300001000;1179;Nese;343.81;343.81;219.17;33.11;229.51;258;613;763;823;871;915;960;991;1040;1106;1426;28.6;2.26;0.61;0.77;0;0.7;9.1;0;7.13;79.33;0.02;60.78646469;5.937979221;7669;6773090
1200137000;475;Gjærdeslåtten;774.58;774.58;-999;25.16;-999;567;838;1033;1122;1188;1261;1330;1403;1489;1574;1828;43.39;-999;1.73;4.12;0;0.58;16.24;0;5.02;69.53;0.1;60.78967667;8.726650238;158818;6755688
6300012000;1187;Fjellanger;12.83;12.83;70.94;38.97;68.51;403;690;783;848;884;913;949;982;1023;1070;1205;7.24;8.53;0.7;0.39;0;0.89;5.69;0;4.52;86.05;0;60.7971611;6.054623127;14141;6773401
6200010000;1167;Myrkdalsvatn;158.28;158.28;38.7;30.95;36.11;229;505;677;818;915;975;1035;1090;1158;1235;1431;18.04;27.22;1.76;2.82;0;1.12;14.39;0;3.68;72.3;0;60.79920959;6.501574039;38350;6770390
6300002000;1180;Brakestad;223.66;223.66;19.78;29.14;19.21;496;782;838;884;932;964;994;1033;1082;1140;1426;19.24;28.09;0.21;0.88;0;1.24;2.69;0;9.21;85.79;0.03;60.81087875;6.170152187;20595;6774067
200465000;272;Flagstadelva;173.13;173.13;21.98;7.69;18.5;128;205;255;340;459;529;587;616;642;671;819;24.23;29.26;14.91;20.21;0;0.04;58.62;0;0.4;0;1.23;60.81517029;11.10336113;288109;6748494
1200200000;518;Kolbjørnshus;2064.45;2064.45;-999;15.73;-999;143;544;680;761;818;870;919;966;1014;1077;1681;71.64;-999;2.35;14.57;0;0.17;56.6;0;3.66;12.54;0.11;60.82338715;10.07233334;232178;6753180
7200008000;1242;Aurdalsvatn;395.49;395.49;21.15;21.61;20.1;813;1286;1383;1433;1447;1466;1492;1518;1547;1587;1764;22.61;32.81;0;0.06;0;1.84;0.98;1.95;15.58;81.12;0.02;60.82726669;7.490491867;92254;6766929
1200130000;470;Flævatn;183.87;183.87;-999;19.36;-999;1108;1114;1152;1206;1288;1355;1438;1519;1581;1643;1788;20.4;-999;0;5.63;0;9.13;0;0;11.11;83.07;0;60.83391953;8.391529083;141130;6762390
7200005000;1239;Brekke bru;268.16;268.16;30.69;36.62;32.33;16;808;1007;1125;1211;1273;1327;1381;1444;1508;1761;30.45;48.69;0.29;0.46;0;0.74;11.27;3.07;4.18;77.15;0;60.84999466;7.114254951;72197;6771850
7100001000;1232;Skjerping;267.79;267.79;40.56;40.76;48.12;60;564;718;814;894;969;1041;1114;1197;1292;1602;17.74;23.67;1.12;2.71;0;0.01;20;0.11;0.81;72.93;0.01;60.85893631;6.792996883;54955;6774985
1200110000;453;Ølsjø;792.44;792.44;-999;17.26;-999;749;837;868;896;940;982;1027;1097;1244;1477;1907;52.81;-999;1.73;16.41;0;2.84;24.8;0.04;8.19;32.87;0.01;60.87321091;9.254469872;188286;6762335
200604000;305;Elverum;15388.863;15451.76;1.89;0;2.05;180;466;606;695;757;817;877;943;1026;1155;2170;226.25;334.18;1.81;10.14;0;0.1;51.55;0;2.77;26.87;0.12;60.87421036;11.56065178;313304;6753674
7200007000;1241;Vassbygdvatn;758.77;758.77;34.74;28.31;27.38;54;1058;1258;1350;1412;1441;1467;1498;1532;1575;1764;35.98;51.71;0.08;0.12;0;0.81;5.5;2.28;11.2;79.16;0.02;60.87571335;7.263466835;80603;6773734
200323000;201;Fura;42.47;42.47;29.44;7.33;30.62;349;427;477;517;550;575;598;622;652;690;758;10.21;12.41;1.39;14.96;0;0;79.99;0;0.05;0;0.16;60.88483429;11.32495689;300585;6755550
1200215000;529;Storeskar;119.43;119.43;-999;25.5;-999;895;1006;1118;1206;1279;1346;1399;1456;1510;1587;1814;18.64;-999;0.24;4.04;0;0.34;5.94;0;3.54;80.91;0;60.89171982;8.332807541;138604;6769129
1200197000;516;Grunke;184.46;184.46;-999;30.01;-999;870;993;1069;1150;1232;1305;1389;1481;1581;1686;1907;22.28;-999;0.05;2.48;0;0.26;10.89;0.18;1.68;78.01;0;60.95033646;8.703139305;159261;6773648
1200070000;426;Etna;570.17;570.17;-999;13.65;-999;399;757;835;880;909;936;963;993;1024;1069;1681;46.33;-999;1.71;17.75;0;0.3;46.7;0;4.43;12.56;0.01;60.95190048;9.626173973;209139;6769367
200463000;270;Vismunda;190.65;190.65;18.02;12.07;17.51;188;466;562;630;661;689;716;740;788;850;1066;32.22;40.33;3.18;18.49;0;0.03;73.9;0;1.6;0.72;0;60.95845413;10.56209469;259786;6766299
1200008000;387;Grønvold Bru;933.48;933.48;-999;14.18;-999;343;704;791;834;878;925;969;1010;1056;1129;1521;56.53;-999;1.32;17.99;0;0.72;47.89;0;4.16;19.32;0.02;60.96960449;10.08833694;234267;6769370
6800001000;1212;Kløvtveitvatn;4.473;4.47;44.29;28.68;62.06;410;410;410;424;441;463;491;515;539;559;624;2.29;3.13;0;0.22;0;21.34;23.94;0;21.48;53.91;0;60.97053146;5.289796829;-24332;6798491
7000008000;1226;Målset;7.71;7.71;65.4;22.89;53.4;870;963;1032;1050;1063;1079;1104;1151;1224;1257;1365;4.15;6.67;0;2.46;0;2.61;0;0;8.82;88.72;0;60.97331619;6.502296925;40905;6789664
6400006000;1193;Solrenningsvatn;53.37;53.37;33.08;34.1;49.79;596;652;759;821;887;950;1019;1081;1141;1205;1329;10.39;11.45;0;2.25;0;2.68;7.2;0;6.24;83.66;0;60.98348618;6.112276077;20077;6793595
6800002000;1213;Havelandselv;21.004;21;63.09;46.29;68.89;1;116;184;281;390;465;514;549;582;617;720;4.76;7.14;2.62;0.05;0;0.84;20.19;0;4.33;50.38;0;61.00558472;5.193134785;-28939;6803146
7300005000;1260;Breistøl;151.919;151.92;-999;21.86;-999;1013;1176;1286;1333;1346;1376;1416;1456;1509;1605;1917;14.14;-999;0;0.42;0;3.61;0;0.4;13.72;84.65;0;61.02262497;8.034507751;124027;6785336
7300009000;1264;Nivla;165.95;165.95;52.42;32.68;47.58;161;1101;1309;1414;1463;1483;1508;1532;1560;1598;1826;21.24;27.85;0;0.02;0;1.17;7.78;0;9.53;80.96;0.02;61.0275116;7.660514832;103959;6788088
7300008000;1263;Dilma;133.52;133.52;67.27;28.3;52.62;360;1170;1319;1382;1430;1470;1511;1552;1598;1645;1777;19.38;19.96;0;0.02;0;0.26;6.5;0.31;5.86;86.8;0.01;61.0302887;7.813097954;112203;6787480
1200077000;431;Slidrefjord;782.07;782.07;-999;24.82;-999;366;511;712;868;959;1055;1193;1274;1355;1469;1774;55.89;-999;4.11;2.31;0;3.15;30.95;0;9.57;48;0.05;61.03871155;9.044779778;178607;6781732
7300004000;1259;Sælthun;789.96;789.96;21.8;28.56;21.95;188;956;1135;1228;1287;1335;1378;1424;1479;1563;1917;32.38;59.13;0.36;0.72;0;0.22;10.85;0.26;6.71;78.23;0.01;61.05215836;7.700852871;106435;6790578
200001000;22;Hådammen;38.068;38.07;15.43;7.41;13.34;449;473;492;517;546;566;596;627;654;679;744;10.48;16.41;0.85;26.97;0;0.81;70.05;0;1.2;0;0;61.05477142;12.02073479;339180;6772548
7300001000;1256;Lo Bru;562.39;562.39;25.35;26.88;22.82;409;977;1137;1223;1278;1324;1358;1402;1450;1521;1917;26.28;47.19;0.41;1;0;0.42;9.37;0.3;7.81;77.98;0;61.05896378;7.816027164;112711;6790644
7300006000;1261;Bergstølfoss;203.6;203.6;32.8;23.38;41.89;603;1127;1241;1298;1333;1359;1398;1439;1486;1563;1917;18.66;20.93;0;0.39;0;2.01;1.72;0.3;10.6;83.22;0;61.06023788;7.961112976;120527;6789934
7300007000;1262;Ulvisbakken;260.41;260.41;26.06;24.3;27.25;565;986;1136;1217;1256;1303;1352;1402;1449;1521;1914;20.27;33.72;0.08;1.8;0;0.74;9.1;0.41;7.6;78.63;0;61.07696533;7.97631979;121544;6791701
1200183000;512;Ala;47.7;47.7;-999;11.82;-999;844;936;937;945;957;973;995;1026;1081;1269;1579;10.87;-999;2.73;10.23;0;10.97;20.23;0;16.18;23.58;0;61.13258362;8.701430321;161123;6793891
8100001000;1393;Hersvikvatn;7.13;7.13;118.73;28.57;92.35;21;24;24;35;41;51;64;96;209;300;448;5.09;3.47;0;1.55;0;19.37;10.59;0;20.06;12.57;0;61.1352005;4.937115192;-40448;6819567
7300010000;1265;Smeddalen;157.31;157.31;27.23;22.35;24.15;909;1012;1144;1210;1237;1274;1318;1354;1404;1459;1808;13.79;23.89;0;2.54;0;1.75;4.45;0;8.9;80.1;0;61.13822556;8.004052162;123765;6798337
7100005000;1234;Feios;74.66;74.66;75.77;46.81;89.25;55;427;590;698;790;932;1062;1188;1320;1463;1635;12.52;14.69;1.46;0.78;0;0.02;36.61;2.97;0.76;49.84;0;61.14293671;6.749968052;56620;6806737
1200207000;524;Vinde-elv;269.34;269.34;-999;12.87;-999;566;848;880;911;939;981;1014;1041;1080;1149;1676;20.51;-999;1.1;14.49;0;1.25;31.06;0;7.34;25.01;0.02;61.15174484;9.075592995;181407;6794136
7900003000;1367;Nessedalselv;30;30;72.03;45.9;79.43;289;431;574;693;760;820;886;949;1040;1129;1346;8.06;10.9;0;0;0;1.33;23.33;0;3.33;66.67;0;61.15987015;6.278385162;31630;6811910
1200013000;392;Rysna;50.76;50.76;63.82;27.09;54.72;614;877;1038;1134;1255;1372;1442;1520;1577;1618;1772;11.93;15.9;1.97;0;0;0.87;5.91;0;3.94;76.83;0;61.1685257;8.715961456;162288;6797807
7300027000;1277;Sula;30.32;30.32;22.68;18.13;35.11;1006;1240;1264;1296;1325;1349;1392;1426;1467;1521;1808;11.01;13.81;0;0.56;0;3.78;0.13;0.43;9.14;89.48;0;61.17078018;8.101554871;129378;6801391
7300021000;1272;Frostdalen;25.742;25.74;42.43;23.86;48.27;986;1096;1134;1187;1264;1323;1353;1387;1421;1459;1612;7.72;9.59;0;2.21;0;2.31;2.13;0;7.37;88.13;0;61.1774025;8.029518127;125596;6802537
200439000;255;Kvarstadseter;377.09;377.09;8.96;8.79;11.19;669;759;816;850;884;912;935;962;991;1032;1191;32.89;37.82;0.28;29.57;0;0.05;40.35;0;2.41;16.73;0;61.17847443;10.89334202;279236;6789603
8000004000;1383;Ullebøelv;8.31;8.31;59.66;37.31;70.14;335;519;580;610;634;661;695;732;771;805;886;5.65;5.88;0;0.12;0;1.21;9.99;0;3.37;78.94;0;61.20324326;5.785525799;5965;6820350
200028000;40;Aulestad;866.25;866.25;10.61;16.22;11.34;199;500;658;750;812;850;884;918;961;1026;1513;49.03;66.75;6.46;13.62;0;0.04;57.95;0;2.42;7.85;0.12;61.21541977;10.26932335;246027;6795979
7700020000;2274;Henjaelvi ved Flotande;48.141;48.14;59.84;0;49.82;355;691;774;828;867;922;1011;1083;1201;1347;1564;8.33;10.03;0;1.31;0;0.51;16.2;7.26;5.09;65.16;0;61.23227692;6.849142075;63172;6815964
7400018000;1300;Fornabu;53.127;53.13;61.65;26.37;64.07;401;693;838;941;1001;1054;1109;1160;1224;1280;1449;10.95;13.84;0.45;0.62;0;0.15;27.48;0;2.5;61.16;0;61.23335266;7.551174164;100689;6811580
7400001000;1285;Årdalsvatn;978.68;978.68;29.81;38.13;26.57;3;823;1054;1120;1203;1281;1346;1404;1475;1604;2385;43.75;53.67;0.04;0.41;0;1.48;11.28;3.84;7.94;73.8;0.15;61.24432755;7.718200207;109753;6811786
8200004000;1396;Nautsundvatn;218.959;218.96;-999;34.4;-999;45;153;256;326;397;464;530;577;620;676;904;22;-999;1.51;1.23;0;2.17;39.5;0;7.53;40.28;0;61.25289536;5.385350227;-14569;6828940
31100006000;2230;Nybergsund;4089.358;4424.85;2.35;0;2.4;353;645;671;709;752;781;819;862;915;997;1748;142.63;207.68;0.83;10.08;0;2.48;43.24;0;9.85;26.69;0.06;61.25907898;12.32249641;356394;6794588
7700003000;1353;Sogndalsvatn;110.93;110.93;330.94;49.06;297.84;395;492;655;784;896;1000;1093;1196;1284;1400;1600;14.75;1.51;1.32;1.33;0;2.3;20.2;6.18;4.11;58.59;0;61.2978363;7.006807804;72486;6822181
8300002000;1401;Viksvatn;508.13;508.13;14.16;39.41;19.34;143;302;482;625;731;842;935;1021;1119;1261;1635;44.09;56.29;1.83;1.06;0;3.43;22.52;4.93;9.53;57.3;0;61.3330574;5.886256218;13361;6833950
200145000;97;Losna;11212.84;11212.84;3.25;17.92;4.77;179;707;870;966;1052;1139;1243;1356;1477;1641;2463;178.16;229.68;2.48;3.41;0;0.19;25.28;3;3.89;56.54;0.1;61.33338547;10.27753162;247417;6809063
200611000;308;Storsjøen ndf. -Øra;2337.11;2337.11;4.08;15.07;6.01;249;404;572;664;712;765;820;874;931;1014;1743;107.43;135.35;1.27;9.89;0;2.1;58.09;0;3.32;23.39;0.04;61.34149933;11.4023962;307581;6806130
8300006000;1405;Byttevatn;104.54;104.54;193.7;38.44;203.83;485;692;773;893;954;1014;1075;1123;1183;1254;1502;11.31;0.4;0;0.71;0;1.66;6.66;1.66;10.38;79.98;0;61.34341049;6.346825123;38001;6831738
7500023000;1326;Krokenelv;45.92;45.92;79.09;38.13;83.55;17;706;940;1029;1106;1148;1188;1227;1265;1306;1467;12.39;14.65;0.02;0.3;0;0.05;16.2;0;0.98;78.22;0;61.3470192;7.398218155;93991;6825127
8300012000;1402;Haukedalsvatn;205.55;205.55;24.07;41.79;28.55;297;378;563;704;836;937;1034;1133;1255;1387;1635;25.9;32.96;1.48;1.23;0;5.26;16.27;11.34;9.08;56.52;0;61.36568832;6.231594086;32209;6835027
7700002000;1352;Veitestrandsvatn;386.307;386.31;3.65;48.88;32.1;171;276;513;728;906;1061;1213;1344;1466;1594;1914;37.54;38.86;0.97;0.85;0;4.59;16.59;25.69;5.1;40.87;0;61.3690834;7.090223789;77895;6829532
7500028000;1331;Feigumfoss;48.036;48.04;47.33;32.56;59.32;478;977;1111;1186;1243;1294;1335;1372;1408;1452;1594;12.43;17.04;0;0;0;1.31;2.08;0;4.17;87.52;0;61.38168335;7.445110798;96935;6828679
200451000;263;Nordre Osa;447.09;447.09;6.02;11.01;5.86;457;578;617;664;702;733;767;799;842;903;1201;36.71;47.69;0.2;16.64;0;0.04;53.22;0;1.09;18.6;0;61.41274643;11.74337006;326203;6813101
200036000;45;Øvre Heimdalsvatn;24.91;24.91;37.09;19.72;47.85;1088;1114;1164;1229;1279;1311;1335;1367;1426;1585;1841;5.88;8.27;0;0.88;0;3.13;2.61;0;4.3;92.33;0;61.41835785;8.894496918;174466;6824639
8400020000;1418;Holsenvatn;71.476;71.48;62.88;0;67.97;131;203;374;512;602;674;756;826;899;1010;1425;11.72;14.31;2.74;0.74;0;4.94;32.88;0;5.96;51.04;0;61.43176651;6.064878941;24363;6843550
200415000;242;Espedalsvatn;95.19;95.19;20.99;21.97;24.37;721;755;853;924;995;1055;1098;1134;1176;1226;1449;12.39;14.62;0.61;4.63;0;4.83;40.98;0;7.87;40.5;0.01;61.43769073;9.49435997;206575;6823937
8300007000;1406;Grønengstølsvatn;65.65;65.65;36.85;41.3;49.48;520;762;892;983;1085;1184;1277;1357;1434;1505;1635;10.57;14.51;0;0.43;0;2.16;3.21;31.23;4.95;58.78;0;61.44324112;6.468958855;45951;6841930
7800008000;1363;Bøyumselv;40.425;40.42;89.06;47.38;146.64;40;206;456;759;1010;1224;1357;1487;1578;1619;1731;11.08;6.53;0.25;0.35;0;0.16;19.27;42.95;0.3;30.5;0;61.44869995;6.742683887;60541;6840653
7600004000;1338;Leirdal;141.67;141.67;-999;36.02;-999;359;581;815;990;1129;1278;1399;1491;1572;1678;1928;24.97;-999;0.17;0.08;0;5.32;7.4;47.22;5.75;36.59;0.02;61.4703331;7.206048012;85404;6840008
8400015000;1425;Jølstervatn ndf.;384.46;384.46;6.14;41.92;30.34;200;207;362;523;638;748;852;961;1086;1278;1648;34.11;40.17;3.02;1.8;0;10.22;21.96;6.8;11.49;46.63;0.06;61.49060059;6.107237816;27503;6849751
200102000;67;Gjende;375.62;375.62;14.22;0.01;14.37;984;1129;1301;1393;1457;1527;1613;1705;1807;1931;2362;29.9;36;0;0.84;0;4.29;2.24;11.59;8.2;75.42;0;61.49501801;8.806900978;170616;6833593
7600010000;1344;Myklemyr;575.82;575.82;26.84;39.78;21.32;89;519;819;1056;1211;1323;1414;1491;1566;1666;2081;40.53;53.69;0.83;0.07;0;0.19;13.2;31.06;3.16;47.37;0.05;61.5073967;7.273677826;89479;6843686
7600011000;1345;Vigdøla;45.45;45.45;56.5;30.81;49.23;643;921;1034;1146;1240;1324;1396;1453;1516;1586;1740;14.69;14.02;0.11;1.03;0;0.41;5.87;19.82;2.88;69.61;0;61.50817871;7.327950001;92363;6843431
8400030000;1431;Lunde;34.373;34.37;114.57;38.32;155.31;259;911;1008;1125;1125;1305;1357;1421;1501;1589;1648;6.17;7.33;0;0;0;0.89;1.28;46.01;5;43.28;0;61.51784134;6.636446953;55898;6849033
8400019000;1428;Sygnesandselva;10.32;10.32;223.45;53.78;194.58;218;644;873;1030;1112;1208;1303;1372;1475;1566;1634;4.7;4.3;0.19;0.29;0;0.01;5.81;30.52;0.19;59.88;0;61.52047729;6.586974144;53319;6849664
8400007000;1417;Sægrova;7.14;7.14;-999;36.9;-999;237;732;881;1008;1115;1154;1209;1319;1467;1554;1610;4.6;-999;0.14;0.28;0;1.18;9.35;28.75;3.85;57.22;0;61.53483582;6.493644238;48593;6851899
200578000;284;Imssjøen S.;157.97;157.97;24.08;19.09;20.42;616;816;910;956;993;1024;1056;1093;1133;1176;1347;16.81;20.9;0.25;5.32;0;0.29;38.76;0;1.2;49.66;0;61.54787827;10.66176414;269535;6831491
7500022000;1325;Gilja;203.43;203.43;44.54;31.69;50.79;99;921;1126;1211;1280;1364;1435;1494;1554;1622;2012;21.95;27.75;0;0.13;0;0.2;5.51;13.78;3.2;75.96;0;61.54969025;7.621135235;108417;6846231
200063000;51;Rudi;369.66;369.66;16.69;17.41;20.99;245;726;825;866;915;980;1052;1112;1172;1250;1661;35.88;47.81;1.89;7.3;0;0.28;40.04;0;2.16;41.93;0;61.55955124;10.05738354;237568;6835077
200013000;30;Sjodalsvatn;479.97;479.97;10.95;4.97;11.09;940;1014;1168;1320;1391;1462;1541;1643;1752;1892;2362;36.07;50.56;0;1.02;0;4.19;5.25;9.04;9.26;71.48;0;61.56027222;8.927066803;177672;6840237
8500002000;1433;Blåmannsvatn;225.63;225.63;-999;32.24;-999;43;123;165;254;346;429;497;559;632;721;1117;25.96;-999;1.21;3.08;0;5.06;36.62;0;12.96;38.05;0;61.56560898;5.519804955;-2340;6862457
7500020000;1323;Åsetvatn;29.65;29.65;-999;28.74;-999;838;874;982;1036;1099;1158;1222;1295;1380;1461;1620;6.45;-999;0;1.69;0;6.05;1.96;4.86;6.54;84.86;0;61.57158279;7.567434788;105854;6848984
200298000;182;Russa;144.8;144.8;31.46;29.78;33.75;890;1178;1235;1328;1432;1518;1593;1674;1783;1933;2366;20.81;23.83;0;0.83;0;2.29;2.19;0;3.9;84.32;0;61.57555008;8.92317009;177625;6841953
8400010000;1420;Nesvatn;95.58;95.58;20.19;37.08;35.4;319;506;605;682;752;807;866;929;1032;1160;1469;16.67;23.45;0.38;4.5;0;2.49;7.92;0.06;7.57;75.02;0;61.59517288;5.982876778;22539;6862231
7500021000;1324;Rausdal;123.18;123.18;46.2;28.25;41.97;842;1129;1219;1298;1376;1435;1483;1532;1581;1655;2012;12.84;15.9;0;0.15;0;0.52;0;15.68;4.14;80;0;61.63097;7.579783916;107261;6855494
8500001000;1432;Norddal;97.64;97.64;41.57;43.4;44.18;8;294;399;527;626;713;779;840;958;1062;1345;16.82;22.54;0;0.25;0;4.12;10.01;1.45;12.79;67.42;0;61.64331436;5.375609875;-8660;6872170
8500004000;1434;Staumstad;109.68;109.68;-999;42.49;-999;6;124;274;388;499;586;650;720;822;1009;1383;14.88;-999;1.15;1.29;0;2.42;25.36;4.4;6.15;51.23;0.01;61.64839554;5.444870949;-4935;6872190
200300000;183;Bøvertjern;76.19;76.19;30.98;35.75;32.3;926;1102;1260;1355;1412;1468;1527;1613;1750;1877;2192;14.23;17.75;0.17;0.16;0;1.15;3.09;16.31;2.86;75.75;0;61.65668488;8.131854057;136703;6855133
31100460000;2242;Engeren;390.731;394.83;-999;0;-999;472;583;705;770;810;837;874;907;948;1008;1207;26.19;-999;0.94;15.62;0;2.99;47.44;0;4.07;28.24;0.04;61.66487885;12.01834774;342156;6840464
7600005000;1339;Nigardsjøen;65.291;65.29;-999;28.4;-999;285;810;1172;1388;1474;1546;1605;1661;1703;1771;1946;11.08;-999;0;0;0;0.77;1.27;74.9;0.81;18.92;0;61.6665535;7.241906166;89910;6861527
8600004000;1443;Gjengedalsvatn;55.99;55.99;-999;35.7;-999;482;508;625;699;790;865;927;997;1087;1203;1465;12.11;-999;0;3.95;0;6.12;4.5;2.98;8.79;75.05;0;61.66680527;6.054325104;27403;6869633
200289000;175;Høydalsvatn;77.56;77.56;35.85;28.43;36.35;904;1046;1201;1303;1380;1428;1462;1511;1570;1679;2126;13.95;20.1;0;0.12;0;3.68;4.42;9.21;8.84;75.58;0;61.66875839;8.124903679;136479;6856512
7600014000;1346;Fåbergstøl;182.96;182.96;42.51;36.15;32.86;504;886;1197;1263;1338;1425;1480;1531;1583;1671;2081;17.34;23.37;0;0.02;0;1.75;3.66;36.92;7.28;49.97;0.06;61.71100998;7.350989819;96240;6865771
200267000;159;Mistra Bru;549.86;549.86;8.95;11.45;10.71;320;670;700;730;770;807;842;883;932;1006;1743;38.08;62.41;0.03;17.08;0;0.05;48.42;0;0.89;28.05;0.01;61.71111679;11.24189377;301378;6847738
8700010000;2280;Gloppenelv v/Bergheim;217.12;217.12;-999;0;-999;138;331;568;757;906;1045;1157;1274;1405;1558;1823;23.88;-999;3.15;0.26;0;0.26;16.16;19.17;1.15;51.27;0;61.71860123;6.520636082;52688;6872059
8600010000;1448;Åvatn;162.13;162.13;25.76;36.56;32.93;27;391;484;554;631;696;777;858;945;1077;1465;368.79;31.71;0.73;3.77;0;1.48;19.46;1.07;5.83;64.21;0.01;61.71940613;5.921297073;21226;6876428
200290000;176;Brustuen;253.93;253.93;28.95;31.6;28.95;665;977;1131;1253;1347;1413;1465;1532;1625;1790;2192;24.72;33.44;0.84;0.35;0;0.54;7.02;9.32;4.19;73.02;0;61.72623062;8.296029091;146164;6861944
200132000;89;Lomnessjø;1165.17;1165.17;9.08;16.58;9.33;256;437;592;703;767;825;880;927;978;1064;1651;63.15;87.32;2.17;8.15;0;0.35;53.12;0;1.34;31.24;0.06;61.73286819;11.20183754;299404;6850281
200021000;179;Visa;241.53;241.53;29.05;13.78;43.72;519;1109;1300;1439;1543;1632;1728;1825;1917;2033;2462;24.66;28.69;0.13;0.24;0;0.02;8.93;14.17;0.62;74.96;0;61.74880981;8.403853416;152096;6863867
8700002000;1468;Eidsfoss;614.33;614.33;-999;46.04;-999;14;213;380;567;730;869;998;1124;1279;1483;1823;37.21;-999;3.87;1.28;0;3.63;23.11;12.68;5.49;46.06;0.1;61.7568779;6.245151997;38792;6878226
8600001000;1440;Risevatn;32.57;32.57;-999;50.57;-999;24;79;306;498;639;733;797;865;940;1045;1350;7.36;-999;0;0;0;6.81;19.62;0.28;8.87;67.98;0;61.76268005;5.295063019;-10908;6885996
200457000;163;Fossum Bru;1136.62;1136.62;8.09;20.21;11.2;422;762;844;913;981;1049;1111;1186;1275;1432;2169;58.2;91.52;0.52;5.34;0;0.19;34.48;0;1.1;53.51;0;61.78715515;10.66293144;271374;6858100
200276000;167;Furusjøen;67.61;67.61;18.42;13.65;30.9;852;853;873;900;971;1041;1090;1162;1219;1293;1661;9.55;2.75;0;7.4;0;7.96;23.67;0;8.87;48.81;0;61.78904343;9.721846581;221853;6861981
8800030000;1471;Oldevatn;203.1;203.1;213.64;49.17;265.51;33;168;530;862;1106;1305;1444;1560;1645;1742;1953;21.13;0.51;1.66;0;0;3.33;17.57;40.25;4.21;32.84;0;61.79801941;6.828373909;69973;6878771
200268000;160;Akslen;790.9;790.9;17.39;28.94;21.41;476;955;1138;1280;1384;1467;1559;1672;1804;1938;2462;35.94;48.01;0.63;0.38;0;0.06;11.38;10.87;1.9;71.06;0;61.7995491;8.447217941;154948;6869267
8600012000;1450;Skjerdalselv;23.66;23.66;88.47;52.84;97.11;291;417;620;781;915;1042;1117;1170;1229;1328;1465;6.81;5.79;0;0.32;0;0.99;14.76;16.91;3.75;58.85;0;61.8156395;5.935550213;23471;6886968
200025000;39;Lalm;3982.39;3982.39;5.49;24.01;7.05;355;781;975;1115;1226;1326;1411;1499;1597;1732;2462;109.29;130.59;1.4;0.63;0;0.42;14.37;6.23;3.75;69.76;0.06;61.81748199;9.27394104;198571;6867140
9000001000;2283;Førdeelv;2.99;2.99;141.22;0;142.75;45;109;141;179;222;263;293;318;342;379;501;2.68;2.11;0;1.34;0;0;0.33;0;0;48.83;0;61.84174347;5.027637959;-23554;6896868
200032000;43;Atnasjø;463.2;463.2;9.6;28.08;12.48;701;804;924;1022;1119;1205;1274;1360;1469;1595;2169;33.95;59.76;0.43;2.48;0;1.09;20.11;0;1.8;68.73;0;61.85194016;10.22211933;248696;6866933
200275000;166;Liavatn;211.26;211.26;19.24;31.49;30.5;733;905;1060;1215;1323;1397;1460;1515;1576;1688;2080;20.18;28.09;0.07;0.3;0;1.33;10.64;14.24;5;68.33;0;61.85414886;7.76287508;119692;6879152
200614000;311;Rosten;1833.91;1833.91;8.73;7.53;13.16;319;675;900;1027;1108;1186;1263;1340;1431;1545;2207;72.86;102.35;3.21;2.05;0;0.02;21.57;0.36;1.44;67.6;0.1;61.85856628;9.404753685;205839;6871105
8800004000;1472;Lovatn;234.88;234.88;5.1;0;65.29;52;211;614;930;1174;1337;1487;1592;1666;1744;2071;21.57;18.81;0.17;0.01;0;4.49;14.9;36.8;5.12;40.31;0;61.85869217;6.889669895;74031;6885087
200284000;172;Sælatunga;454.83;454.83;24.64;19.63;22.98;423;902;1076;1184;1288;1370;1437;1530;1611;1688;1880;34.39;45.61;1.06;1.08;0;0.08;8.77;0.12;1.64;83.68;0.02;61.88428497;9.061225891;188075;6875566
31100010000;2238;Galten;2154.256;2485.65;-999;0;-999;643;662;692;734;764;789;822;865;917;1001;1596;74.82;-999;0.63;9.12;0;7.47;32.2;0;12.72;23.38;0;61.89131546;11.75379658;329418;6866337
8900001000;1484;Hornindalsvatn;381.68;381.68;4.61;34.4;-34.6;53;53;164;282;377;480;600;707;814;968;1510;35.97;0.29;3.41;3.65;0;13.37;40.77;0.46;14.84;32.51;0.06;61.91970062;6.118608952;34638;6897149
31100004000;2228;Femundsenden;1462.642;1794.03;7.06;0;6.54;652;662;691;732;761;782;809;846;890;956;1455;69.77;2.45;0.41;7.48;0;11.81;32.45;0;18.46;27.04;0;61.91996002;11.94004345;339350;6869050
8800011000;1470;Strynsvatn;482.04;482.04;33.84;0;32.7;29;195;548;795;987;1129;1250;1377;1497;1594;1933;33.46;41.68;1.46;0.04;0;4.83;14.71;17.54;6.24;53.74;0.02;61.93126678;6.878946781;74482;6893197
200135000;91;Tysla;231.1;231.1;7.4;21.7;15.26;279;413;499;606;691;745;793;852;900;949;1651;33.59;43.35;2.94;3.77;0;0.01;66.15;0;0.7;21.71;0.01;61.93176651;11.057971;293157;6872861
200265000;158;Unsetåa;618.36;618.36;12.45;15.52;12.43;338;569;736;834;893;926;957;1000;1051;1106;1433;39.65;58.95;1.07;7.72;0;0.09;40.52;0;1.01;46.55;0;61.94610977;11.08351231;294592;6874376
8800015000;1479;Grasdøla;34.54;34.54;58.85;0;68.44;594;910;1055;1146;1186;1253;1323;1384;1443;1519;1663;8.23;11.24;0;0;0;2.14;3.43;8.31;7.26;79.29;0;61.96665192;7.2570858;94696;6894691
200015000;32;Breiddalsvatn ndf.;127.62;127.62;6.59;26.95;17.93;877;925;987;1024;1089;1160;1249;1333;1403;1471;1853;20.92;23.46;0;0.74;0;6.02;1.92;0.88;11;85.27;0;62.00461578;7.638807774;115094;6896570
200291000;177;Tora;262.27;262.27;27.24;20.56;29.31;717;1224;1337;1389;1444;1485;1516;1556;1615;1704;2006;20.79;28.38;0.01;0;0;0.39;0.07;5.4;6.23;87.42;0;62.00772095;7.866355896;126995;6895583
200479000;283;Li Bru;156.81;156.81;19.01;31.64;23.15;753;973;1056;1150;1233;1293;1371;1459;1547;1668;2165;21.53;29.75;0.24;2.17;0;0.01;9.39;0;1;80.64;0;62.00997543;10.00033092;238403;6885379
9800004000;1513;Øye ndf.;138.78;138.78;50.11;57.58;56.66;147;428;607;765;877;982;1085;1183;1281;1408;1848;15.1;20.69;2.24;0.36;0;0.26;17.59;3.79;4.2;64.86;0;62.06818008;6.931252003;79110;6908022
200592000;294;Fokstua;26.37;26.37;52.2;21.73;54.28;990;1221;1290;1347;1403;1442;1474;1514;1559;1592;1708;8.75;10.7;0;0.11;0;-999;0.49;0;0;98.98;0;62.11199188;9.28989315;202296;6899784
200235000;141;Grimsmoen;627.05;627.05;5.74;15.47;12.52;690;832;920;961;1011;1065;1125;1187;1255;1366;1708;47.59;70.17;2.75;7.33;0;0.1;27.46;0;1.05;47.14;0.18;62.11970901;10.06900597;242921;6897303
200304000;187;Jora;272.79;272.79;19.66;25.06;23.44;791;890;1057;1189;1283;1370;1418;1465;1544;1656;2070;27.6;35.92;0.05;1.35;0;0.25;12.35;0.74;4.19;78.51;0;62.13482666;8.998447418;187368;6903694
9100002000;1486;Dalsbøvatn;25.72;25.72;7.26;30.5;20.7;47;60;105;160;204;252;313;358;403;455;527;7.54;8.08;1.32;3.03;0;4.72;3.65;0;10.19;66.52;0.04;62.16242981;5.166490078;-10883;6931180
200273000;164;Ryfetten;1313.37;1313.37;3.79;7.39;11.68;658;836;924;978;1036;1100;1165;1234;1304;1409;1851;54.62;77.54;1.66;6.24;0;0.04;24.53;0.01;0.71;54.25;0.09;62.16821289;10.19262028;249758;6902211
200607000;86;Vålåsjø;125.44;125.44;23.3;14.27;26.78;936;953;976;1016;1068;1121;1185;1252;1318;1464;1708;14.4;23.63;0.07;10.83;0;1.11;14.92;0;2;55.72;0;62.17457581;9.421855927;209764;6906137
9900002000;1515;Nedre Kaldhussetervann;99.76;99.76;-999;35.89;-999;571;870;1001;1054;1126;1174;1244;1311;1406;1492;1816;16.86;-999;0;0.4;0;3.32;6.32;1.43;12.31;77.96;0;62.17515945;7.423720837;106106;6916773
200129000;87;Dølplass;2014.27;2014.27;186.47;0;190.27;529;838;929;987;1041;1099;1157;1220;1289;1386;1851;67.62;1.23;1.61;6.13;0;0.08;25.12;0.01;1.48;55.98;0.07;62.19223022;10.45106506;263382;6903910
9900017000;1527;Rødøla;49.86;49.86;51.53;41.86;54.42;455;742;1043;1279;1319;1325;1361;1423;1499;1590;1850;15.86;19.97;0.12;0.68;0;15.8;10.81;1.58;14.46;70.46;0;62.19768524;7.495432854;110113;6918835
9900003000;1516;Øyen;183.87;183.87;37.68;41.25;39.36;290;819;1088;1197;1290;1328;1385;1457;1527;1628;1994;21;26.22;0.05;0.47;0;1.62;6.35;4.74;8.86;76.31;0;62.20222092;7.475175858;109123;6919461
9900001000;1514;Onilsavatn;303.68;303.68;38.62;40.86;37.86;177;745;999;1110;1191;1271;1328;1399;1477;1577;1994;24.13;29.66;0.04;0.45;0;1.18;8.81;3.34;9.68;74.41;0;62.2191925;7.427195072;106860;6921633
10300021000;1545;Krossan;156.63;156.63;37.61;16.7;35.84;653;1215;1338;1397;1454;1488;1520;1553;1590;1691;2012;20.96;24.16;0.01;0.36;0;0.26;2.88;5.35;4.34;86.55;0;62.22197342;8.326264381;153438;6916795
10900021000;1577;Svoni;136.02;136.02;35.15;0;34.28;989;1073;1118;1173;1224;1263;1309;1383;1459;1542;2281;16.72;18.55;0;2.51;0;0.03;0.48;0.96;1.03;87.52;0.04;62.25589371;9.543678284;216855;6914632
10300003000;1534;Stuguflåten;377.02;377.02;31.72;18.42;36.6;520;662;878;1093;1237;1322;1401;1477;1534;1609;2012;24.24;28.84;1.96;0.72;0;0.34;19.22;2.44;3.22;70.71;0.04;62.27659988;8.153114319;145115;6923797
10300001000;1532;Storhølen;435.51;435.51;14.43;28.48;21.69;489;895;1068;1169;1234;1301;1359;1421;1496;1592;1990;25.37;31.24;0.2;1;0;0.17;10.5;3.1;3.92;80.1;0;62.28049469;8.117796898;143336;6924423
10000001000;1528;Alstad;226.31;226.31;27.32;49.87;32.49;269;683;839;958;1038;1120;1191;1258;1348;1442;1755;20.4;27.98;0.29;0.46;0;0.18;9.78;4.22;5.26;77.74;0;62.32934952;7.483213902;111185;6933505
200011000;29;Narsjø;119.132;119.13;68.79;12.29;64.49;737;777;824;879;915;939;968;1004;1052;1106;1593;17.89;0.78;0.41;11.73;0;1.65;23.86;0;3.12;48.13;0;62.36131668;11.47878265;317821;6919394
9600003000;1502;Hareidselv;40.37;40.37;35.22;23;31.85;18;23;36;69;121;183;245;288;347;418;661;8.36;9.12;6.94;1.49;0;5.44;34.06;0;10.65;17.88;0.67;62.36288071;6.006543159;35653;6946987
10900035000;1584;Håkådalselv;23.62;23.62;72.22;0;63.76;905;1082;1205;1271;1317;1340;1384;1451;1524;1612;1866;8.03;7.53;0;0.21;0;2.72;0;0.89;7.11;90.35;0;62.44451141;8.604706764;170315;6940037
10400001000;1546;Lille Eikesdalsvatn;801.44;801.44;21.68;24.94;23.88;139;863;999;1133;1205;1267;1326;1389;1464;1602;1960;42.37;62.11;0.1;0.52;0;2.94;3.31;0.99;7.51;79.96;0.02;62.45809555;8.228409767;151126;6943525
10300040000;1535;Rauma v/Horgheim;1099.42;1099.42;22.69;28.72;19.42;61;671;886;1050;1159;1241;1322;1397;1482;1571;2012;51.4;75.21;1.12;1.09;0;0.08;16.97;2.19;3.81;72.76;0.02;62.47407913;7.78194809;128391;6947792
10400022000;1559;Midtre Mardalsvatn;13.68;13.68;55.66;32.16;47.76;880;914;932;980;1053;1132;1188;1233;1278;1352;1575;5.92;6.81;0;0;0;4.15;0;9.5;10.23;80.26;0;62.50950241;8.07138443;143673;6950087
10900009000;1573;Risefoss;745.38;745.38;15.14;21.72;20.22;556;1026;1141;1230;1290;1347;1400;1462;1529;1617;2283;37.32;53.11;0.19;1.22;0;0.03;6.79;0.9;1.87;83.98;0.1;62.51138306;9.592638969;221773;6942810
10900012000;1575;Bruøy;471.31;471.31;36.96;0;39.14;259;869;1064;1191;1275;1347;1410;1481;1567;1664;1959;23.45;33.88;0.18;1.05;0;0.08;13.7;1.89;3.44;77.67;0;62.52698135;9.080026627;195609;6946858
10100001000;1530;Engsetvatn;39.93;39.93;20.41;24.75;49.18;45;46;64;92;122;159;208;278;361;443;741;11.37;12.13;5.53;1.85;0;10.98;60.41;0;11.14;11.22;0.05;62.53139496;6.617669106;69509;6961392
10200001000;2284;Hildreelv;14.25;14.25;34.31;0;29.93;38;154;218;251;285;317;362;415;500;618;785;6.03;7.15;0.84;0.91;0;1.99;25.82;0;6.18;29.33;0;62.60017776;6.344421864;56566;6970861
10900029000;1580;Dalavatn;85.44;85.44;25.5;0;22.93;440;742;856;1007;1110;1178;1255;1309;1373;1477;1808;12.91;14.43;0;2.18;0;0.37;12;0.83;4.73;73.3;0;62.6075592;8.734353065;178746;6957484
10900031000;1582;Grøli;107.26;107.26;36.22;0;37.54;64;711;832;992;1098;1170;1249;1309;1380;1487;1844;15.11;18.99;0;1.76;0;0.26;13.43;0.99;4.47;72.56;0;62.64251709;8.723409653;178566;6961420
200061000;50;Orva;25.44;25.44;11.7;10.78;21.92;701;791;806;816;827;839;853;868;889;917;1026;9.74;12.08;0.12;9.43;0;6.37;36.64;0;12.93;14.82;0;62.64654922;11.35357475;313143;6951494
10900004000;1571;Gjevilvatn;170.02;170.02;14.54;0;18.61;660;660;714;804;896;981;1054;1114;1191;1298;1665;21.25;25.96;0.48;4.2;0;12.43;21.22;0.43;13.9;54.79;0.01;62.64731216;9.491959572;217895;6958352
10900042000;1585;Elvehøy Bru;2437.41;2437.41;9.31;0;12.59;34;660;857;1016;1129;1217;1291;1362;1443;1555;2283;65.77;126.43;1.86;1.78;0;0.07;17.65;0.79;2.88;69.56;0.16;62.64873886;8.694088936;177136;6962257
200603000;304;Glåmos bru;797.951;861.32;3.94;11.19;9.87;639;709;753;780;808;842;874;904;956;1055;1572;43.24;70.47;1.22;9.73;0;5.85;32.05;0;12.44;35.81;0.04;62.67218399;11.41977787;316691;6954156
12100009000;1628;Næverdal;793.85;793.85;8.75;13.96;10.82;480;763;853;901;942;979;1014;1048;1090;1162;1640;35.39;78.81;1.41;20.03;0;0.05;14.71;0;2.5;56.93;0;62.69364166;10.1384964;251349;6960838
10400023000;1560;Vistdal;66.52;66.52;58.78;44.64;64.76;46;254;454;575;655;737;792;860;946;1070;1516;11.43;14.47;2.06;4.12;0;0.16;31.93;0;2.27;55.23;0;62.69773483;7.96077919;140290;6971583
11100001000;1587;Innerdalsvatn;79.2;79.2;42.56;55.23;46.7;395;583;771;889;980;1055;1116;1204;1329;1460;1834;13.99;15.88;0.01;2.31;0;1.13;8.67;0.27;4.47;82.25;0;62.7251358;8.744152069;180519;6970489
11100010000;1594;Nauståa;24.79;24.79;54.37;41.44;80.21;217;615;754;840;907;943;988;1043;1113;1216;1373;8.12;9.44;0;0.89;0;0.32;5.32;0;2.94;85.11;0;62.7826004;8.893099785;188716;6976140
10500001000;1561;Øren;137.59;137.59;9.71;19.98;20.63;7;71;106;148;184;235;282;329;381;473;795;18.13;23.07;3.35;15.93;0;4.73;57.4;0;8.19;9.59;0.02;62.79320145;7.726065159;129534;6983503
12100013000;1632;Grana;213.62;213.62;89.18;18.79;95.18;648;721;783;831;890;939;996;1066;1121;1196;1575;19.11;1.05;2.27;10.78;0;3.1;25.79;0;4.14;45.87;0.02;62.82587433;9.714753151;230918;6977241
12200011000;1661;Eggafoss;654.24;654.24;14.47;28.58;15.05;285;623;717;775;811;844;878;918;964;1021;1284;32.97;45.43;2.11;12.57;0;0.15;24.55;0;2.84;43.96;0.04;62.8901062;11.18387985;306061;6979097
11100009000;1593;Søya;137.63;137.63;-999;39.25;-999;28;148;289;410;509;577;633;702;787;911;1420;18.1;-999;2.83;6.11;0;0.02;35.95;0;0.93;37.2;0;62.90028381;8.604899406;175363;6990631
12200013000;1663;Økdalsmo Bru;111.7;111.7;18.16;0;16.96;439;541;606;626;653;694;749;823;916;983;1233;23.09;31.28;3.19;17.7;0;0.01;49.81;0;0.62;26.74;0.02;62.9136467;10.32979774;262898;6984578
11200006000;1600;Sjursberget;168.48;168.48;-999;34.88;-999;77;394;518;621;713;775;841;914;1000;1119;1663;24.55;-999;0.02;5.28;0;0.15;20.02;0.11;2.46;55.79;0;62.98383331;8.915530205;191977;6998378
12200017000;1666;Hugdal Bru;546.17;546.17;21.07;0;22.2;130;443;503;543;583;623;664;718;816;933;1256;0;44.99;5.99;16.7;0;0.01;53.59;0;1;20.69;0.06;62.99406433;10.24643517;259333;6993830
12300014000;1679;Fossan;278.961;279.12;15.77;14.27;23.85;478;633;713;747;769;806;851;908;1004;1140;1543;28.56;35.76;0.73;12.84;0;1.74;29.26;0;4.67;38.32;0.04;63.0249176;11.67930698;331997;6992706
12100022000;1639;Syrstad;2278.127;2278.13;-999;15.91;-999;140;534;630;710;797;866;925;980;1038;1117;1640;76.05;-999;2.63;16.24;0;0.05;31.43;0;2.33;40.51;0.05;63.03225327;9.727707863;233461;7000123
11200005000;1599;Løsetli;192.78;192.78;-999;21.22;-999;177;406;470;511;558;620;694;780;865;1028;1587;21.21;-999;1.93;12.52;0;0.23;35.26;0.2;3.49;35.16;0.01;63.03476715;9.267214775;210250;7002398
12200009000;1660;Gaulfoss;3086.41;3086.41;6.96;0;7.87;54;436;534;598;663;735;813;878;945;1019;1325;87.09;116.79;2.66;14.53;0;0.01;36.72;0;2.05;35.8;0.08;63.10847855;10.22901821;259399;7006617
12100014000;1633;Svorksjøen;102.39;102.39;10.29;19.4;14.38;207;256;280;301;326;354;387;425;462;513;742;18.71;29.8;7.99;12.18;0;3.59;70.47;0;5.77;0.88;0.09;63.13573074;9.843359947;240224;7011150
12100020000;1630;Åmot;282.36;282.36;12.64;22.7;18.04;205;286;336;377;418;460;509;552;627;746;1226;23.55;40.41;3.35;14.74;0;0.69;59.29;0;4.92;13.97;0.03;63.14045715;9.816179276;238900;7011786
12300013000;1699;Stokke limn.;1700.81;1989.89;8.55;13.26;10.26;178;511;612;700;741;779;831;889;963;1065;1772;78.74;100.63;0.53;12.47;0;1.4;24.02;0.01;6.53;49.3;0.03;63.18902588;11.15518475;306597;7012445
12300024000;1686;Rotla Bru;256.785;256.11;15.06;19.41;20.33;190;448;508;570;611;650;695;738;791;895;1440;25.37;40.19;0.04;11.71;0;0.01;29.31;0;1.24;52.45;0;63.19052124;11.18660831;308186;7012517
11400001000;1614;Myra;16.459;16.46;26.24;0;38.66;30;46;60;81;159;212;286;375;463;586;891;6.28;7.88;1.71;13.52;0;0.01;39.1;0;0.43;42.08;0;63.22524643;8.130175591;155202;7029171
12300031000;1691;Kjelstad;142.225;145;15.18;18.33;20.62;200;381;453;506;537;576;619;679;741;837;1166;21.48;33.3;0.52;14.75;0;0.12;43.02;0;2.23;35.1;0.01;63.26616669;11.1310997;305905;7021101
12300029000;1689;Svarttjørnbekken;3.042;3.42;25.4;20.91;44.57;280;304;316;327;332;340;350;365;385;415;512;2.52;3.73;0;15.5;0;0.85;81.58;0;2.92;0;0;63.32032013;10.64944363;282176;7028674
12400011000;1710;Dalå;153.03;154.15;24.03;12.5;25.32;404;501;555;600;644;695;741;795;842;897;1109;15.5;21.53;1.27;20.77;0;0.01;39.01;0;1.31;31.36;0.01;63.32516479;11.83542347;341540;7025730
12400010000;1709;Mannseter;96.78;96.78;32.4;13.6;34.35;349;479;557;629;663;689;715;751;786;825;1097;12.48;17.54;0.39;27.26;0;0.2;28.83;0;2.7;39.82;0;63.35170364;11.67250443;333541;7029098
12400014000;1713;Trøa;182.14;183.25;21.42;12.78;26.18;159;441;494;549;599;650;706;760;827;885;1109;22.73;30.43;1.1;20.29;0;0.01;45.31;0;1.19;26.42;0.01;63.3882103;11.79549217;339893;7032848
12400015000;1714;Børstad;48.46;48.46;16.96;20.32;21.07;13;72;92;106;127;156;182;211;249;307;438;10.48;15.33;26.89;6.52;0;0.17;59.8;0;2.06;0;0.25;63.46709061;11.05987263;303711;7043675
12400002000;1701;Høggås Bru;494.72;494.72;7.45;15.46;12.46;98;378;402;434;469;505;547;597;648;750;1246;39.8;60.9;0.45;26.17;0;2.39;28.65;0;7.38;27.48;0;63.49292374;11.35831165;318730;7045669
12400013000;1712;Feren;219.99;219.99;70.21;14.47;70.32;401;401;449;498;539;584;615;648;711;804;1246;12.31;0.21;0.18;19.59;0;11.98;24.52;0;14.79;34.4;0;63.56162643;11.94145584;348104;7051798
12500002000;1723;Fossing;163.371;163.37;-999;18.92;-999;68;96;137;185;229;282;317;352;396;451;618;20.16;-999;8.29;12.52;0;7.67;63.23;0;10.93;1.62;0.07;63.61081314;11.06167793;304786;7059661
13200004000;1753;Storvatn - Svartelva;148.206;148.21;-999;19.87;-999;129;132;158;195;234;259;299;344;376;413;598;16.84;-999;2.51;13.94;0;10.73;53.58;0;13.58;9.16;0;63.6415062;10.18675995;261732;7066042
12700012000;1730;Innsvatn;65.534;97.61;-999;10.35;-999;415;452;490;507;526;544;561;589;612;647;766;11.07;-999;0.03;30.58;0;4.38;27.96;0;7.77;16.9;0.01;63.65647888;12.21072197;361931;7061748
12600002000;1725;Engstad;20.034;20.03;10.6;12.97;13.82;13;45;55;61;73;85;98;110;127;148;286;6.07;5.96;55.73;2.28;0;0;37.57;0;0;0;0.05;63.68955612;11.15570068;309970;7068139
12700013000;1731;Dillfoss;447.567;479.64;8.22;16.66;10.17;39;271;356;421;469;507;538;565;598;643;1031;33.53;53.19;1.43;21.26;0;0.19;41.09;0;2.65;21.15;0.06;63.76420212;11.76507282;340492;7074780
12700011000;1729;Veravatn;97.514;176.13;11.4;6.37;15.17;361;400;441;466;495;518;548;583;638;733;1215;21.46;27.83;0.36;20.68;0;3.65;33.54;0;4.76;25.09;0.01;63.78934097;12.32654285;368281;7076298
12700006000;1727;Grunnfoss;800.47;880.42;8.49;16.48;13.79;38;255;361;421;461;500;537;569;610;681;1215;47.1;70.38;1.04;12.15;0;0.3;36.47;0;4.18;37.91;0.01;63.79117966;11.80969334;342841;7077672
13300007000;1762;Krinsvatn;206.611;206.61;-999;18.4;-999;87;225;266;297;324;348;369;390;415;455;627;22.87;-999;0.35;8.98;0;1.07;20.19;0;7.56;57.01;0;63.80408859;10.2319088;265316;7083953
12800009000;1739;Leksdalsvatn;177.22;177.22;11.18;14.51;12.02;67;70;97;138;183;235;295;335;373;425;566;15.86;33;10.1;14.67;0;12.38;52.47;0;13.4;0;0;63.90428162;11.56110668;331283;7090897
12800010000;1740;Navlusfoss;433.91;433.91;8.55;14.72;15.63;57;201;285;343;380;410;441;484;542;630;937;33.52;50.69;1.93;16.1;0;0.23;45.74;0;5.95;27.57;0.01;64.24237823;12.43396759;375604;7126533
13800001000;1768;Øyungen;239.07;239.07;11.61;0;17.46;103;179;207;234;264;294;337;388;438;500;682;21.33;29.05;0.15;18.75;0;1.44;39.6;0;6.13;26.57;0.01;64.24378204;11.08168697;310110;7130031
30800001000;2225;Lenglingen;449.979;449.98;-999;0;-999;354;415;507;555;596;625;658;694;733;792;1387;28.52;-999;0.5;22.05;0;4.13;39.25;0;8.07;24.83;0;64.24487305;13.76030636;439898;7124887
13900035000;1796;Trangen;852.39;852.39;5.99;0;9.23;138;384;429;485;525;558;596;640;697;780;1384;74.68;92.45;0.46;13.56;0;2.09;42.11;0;9.34;29.23;0.01;64.4304657;12.4816494;378745;7147388
30700005000;2219;Murusjø;298.05;345.62;5.23;13.06;8.19;310;327;378;431;483;528;578;619;685;808;1267;28.82;40.01;0.75;13.39;0;5.53;53.7;0;8.9;17.12;0;64.48670197;14.0156498;452694;7151617
13900025000;1789;Skjellbreivatn;546.35;546.35;12.21;0;14.9;353;409;464;507;538;563;599;640;699;801;1384;34.16;42.91;0.64;15.12;0;4.68;48.32;0;12.44;19.6;0.01;64.48851013;13.40965843;423580;7152409
13900013000;2325;Grongstadvatn;471.61;471.61;-999;0;-999;13;79;148;178;212;254;305;364;454;567;814;31.75;-999;3.27;10.87;0;2.5;44.58;0;8.19;26.21;0.05;64.5629425;12.19390965;365550;7162721
14000002000;1797;Salsvatn;431.9;431.9;4.96;59;6.61;9;9;88;155;216;270;333;406;485;569;763;38.66;46.26;0.08;2.8;0;10.6;27.61;0;13.95;43.82;0;64.70537567;11.45436192;331029;7180349
30700012000;2222;Huddingsvatn;137.43;155.92;7.87;17.93;5.9;462;495;541;583;631;679;723;761;800;872;1155;13.93;0.34;0.35;6.39;0;5.31;34.84;0;10.23;36.52;0.01;64.87887573;13.81671047;443950;7195480
14200001000;1799;Aunvatn;87.29;87.29;49.04;64.4;41.86;20;204;363;473;559;625;679;722;768;824;925;14;19.74;0;0.3;0;1.66;9.71;0;5.7;73.36;0;64.88863373;12.47703457;380555;7198425
30700014000;2224;Saksvatn;64.03;64.03;17.38;18.24;24.27;464;504;535;560;582;610;640;686;748;806;1006;8.64;15.5;0;17.8;0;2.69;20.22;0;5.15;38.67;0;64.91815948;13.48048496;428131;7200197
13900020000;1784;Moen;64.03;64.03;24;0;32.74;200;269;327;405;485;556;635;724;784;866;1098;14.55;16.89;0;8.57;0;0.02;28.11;0;1.25;59.39;0;64.92564392;13.07912159;409177;7201547
13900005000;1793;Namsvatn;699.158;700.81;8.24;0;9.75;447;486;559;620;689;743;813;875;949;1036;1675;32.35;58.43;0.05;5.62;0;6.06;17.12;0.19;12.54;57.65;0;64.99005127;13.58135605;433081;7208097
13900015000;1780;Bjørnstad;1036.201;1037.62;8.54;0;9.25;225;451;500;567;631;700;764;836;918;1016;1675;42.95;84;0.08;5.66;0;2.85;19.25;0.14;9.79;55.57;0;65.01779175;13.25836372;417933;7211568
14400001000;1800;Åbjørvatn;388.95;388.95;12.72;25.92;14.38;14;285;437;525;577;625;666;708;747;801;1083;29.42;47.28;0;0.63;0;1.91;6.87;0.03;8.51;75.87;0;65.03851318;12.66979408;390293;7214770
15100065000;2445;Stor-Svenningvatnet;189.59;189.59;0;0;0;184;284;310;325;355;386;432;489;562;650;1190;25.26;0;0.19;9.04;0;8.98;44.15;0;17.13;19.48;0.07;65.33750916;13.35795975;423552;7247066
14800002000;1808;Mevatnet;108.47;108.47;1.62;29.3;3.08;15;37;56;92;121;158;208;265;329;410;783;14.13;21.4;1.37;2.15;0;4.02;59.91;0;9.52;17.4;0;65.36553192;12.53804874;385514;7251430
15100017000;1829;Fiplingvatn;264.68;264.68;1.22;0;12.8;355;369;435;533;641;748;843;919;1021;1159;1665;23.54;29.53;0.3;3.37;0;5.27;23.13;0.77;10.02;55.34;0.01;65.38322449;13.62043762;435882;7251867
15100006000;1819;Fiplingkroken;309.03;309.03;0.64;0;11.24;355;374;442;548;659;765;860;938;1048;1187;1679;27.05;33.11;0.29;3.56;0;3.87;23.44;1.32;8.65;55.84;0.01;65.41248322;13.65013981;437332;7255097
15100015000;1827;Nervoll;634.767;653.36;8.23;0;7.86;345;599;678;730;774;827;874;917;986;1083;1692;31.49;67.55;0;4.95;0;0.17;25.86;1.6;2.16;55.51;0;65.43756866;13.9860363;452970;7257601
14800001000;1807;Strompdal;192.78;192.78;168.01;30.33;187.76;73;303;434;510;595;660;715;762;814;888;1234;16.42;2.01;0.01;0.17;0;0.65;1.61;1.34;7.15;78.18;0;65.44537354;12.82141972;398995;7259839
15100009000;1821;Unkervatn;221.798;765;4.74;6.07;10.56;320;537;609;643;689;731;772;823;883;974;1328;68.83;82.76;0.09;5.99;0;3.58;34.91;0;9.84;33.94;0;65.50710297;14.2170763;463782;7265197
15100020000;1832;Fosstun;588.83;588.83;5.15;0;5.17;92;251;311;362;415;483;565;648;742;864;1288;44.33;49.76;0.2;4.75;0;1.1;38.44;0.58;8.12;38.23;0.03;65.50804901;13.39222336;425632;7266027
15100021000;1833;Joibakken;2060.363;2623.11;6.43;0;6.97;59;382;496;595;653;713;770;839;912;1029;1692;103.57;117.59;0.39;5.2;0;0.38;38.95;0.57;5.15;39.38;0.02;65.52928162;13.45520878;428603;7268320
15100004000;1817;Hatfjelldal;1265.621;1828.62;7.58;0;7.6;199;475;597;648;700;749;798;855;916;1019;1692;83.23;88.1;0.3;5.2;0;0.66;36.24;0.58;5.48;40.65;0.03;65.59168243;13.95751953;451932;7274797
15100028000;1834;Laksfors;3090.649;3653.4;6.08;0;6.24;40;331;424;518;598;660;724;793;877;993;1692;113.42;134.61;0.38;5.2;0;0.22;38.41;0.6;5.36;39.75;0.04;65.62155151;13.29155731;421320;7278797
15100016000;1828;Eiteråfoss;139.83;139.83;24.6;0;26.33;159;253;352;437;515;582;657;731;814;907;1244;22.45;28.56;0.14;1.85;0;0.03;18.01;2.08;1.05;71.24;0.01;65.64104462;13.14708519;414732;7281157
15100012000;1824;Østre Fiskelausvatn;16.89;15.41;48.79;0;54.87;430;431;446;463;479;499;522;540;558;583;709;4.98;2.13;0.39;21.03;0;8.47;64.18;0;10.64;1.3;0;65.64469147;13.90351582;449545;7280747
15500013000;1847;Elvestad;122.029;193.72;13.12;0;15.98;460;597;678;752;786;815;846;883;922;982;1375;24.98;34.03;0.12;0.84;0;5.12;14.3;0.05;9.28;59.85;0;65.67491913;14.22332478;464302;7283897
15500027000;1855;Lendingosen;133.42;159.03;9.11;0;10.54;413;495;538;571;612;654;704;746;803;887;1375;24.97;28.84;0.31;3.46;0;4.3;42.44;0.26;7.72;19.67;0;65.79283142;14.2204752;464334;7297040
15500002000;1838;Tustervatn;1353.98;1504.35;5.36;0;7.07;381;384;427;510;586;653;724;799;881;994;1906;43.61;47.26;0.45;3.42;0;14.71;27.11;1.46;18.11;41.99;0;65.80840302;13.89735985;449582;7298997
15200004000;1835;Fustvatn;525.69;525.69;91.84;26.21;105.33;39;83;175;256;346;436;509;591;685;811;1530;25.2;0.16;1.53;4.83;0;2.75;37.45;0.54;5.89;37.21;0.01;65.90523529;13.30759335;422910;7310387
15000003000;1813;Tormodsvoll;6.473;6.47;31.3;54.94;75.93;17;68;143;239;340;450;525;596;680;758;1011;3.75;3.66;1.24;0;0;0.28;13.14;0;1.55;64.61;0;65.94004822;12.4989357;386243;7315495
15000001000;1811;Sørra;6.58;6.58;11.44;11.4;10.48;35;49;52;56;62;69;73;77;85;100;165;2.48;3.15;31.97;16.36;0;0;37.42;0;0.45;0;1.06;65.97855377;12.56823444;389560;7319661
15500006000;1846;Sjøfoss;1730.479;1880.85;6.27;0;8.02;50;384;405;478;554;624;703;779;866;985;1906;64.47;82.9;0.77;3.68;0;9.81;30.72;1.61;15.81;40.24;0.01;66.06451416;13.82773876;446932;7327597
15300001000;1836;Storvatn;48;48;39.63;38.8;39.26;51;73;194;319;462;516;581;656;734;734;991;13.7;15.11;0;0.33;0;8.09;9.63;0;12.8;64.41;0;66.09342194;13.11637783;414832;7331603
15500007000;1841;Bleikingen;156.335;191.9;13.67;0;17.74;453;595;597;646;729;802;860;926;1023;1213;1906;21.32;28.77;0;1.58;0;18.01;12.42;7.92;13.33;41.3;0.01;66.10323334;14.2004118;463857;7331647
15500005000;1840;Lille Målvatn;238.819;274.38;13.18;0;15.71;333;523;595;608;676;754;830;891;973;1127;1906;29.12;40.26;0.01;1.52;0;11.5;15.36;5.54;12.64;43.92;0.01;66.1378479;14.05033398;457132;7335600
15600015000;1865;Forsbakk;56.04;56.04;44.36;35.13;60.43;49;231;287;330;374;445;512;581;682;872;1194;9.96;14.47;0.04;2.69;0;0.03;24.71;0;1.87;58.15;0;66.29299164;13.81260967;446730;7353074
15600017000;1867;Virvatn;39.919;79.06;26.5;0;29.15;642;657;693;736;780;833;909;980;1027;1075;1250;11.12;17.11;0;1.85;0;3.18;1.91;0;3.9;92.13;0;66.30789948;15.36111832;516192;7354277
15600018000;1868;Blerek;78.41;78.41;5.56;0;10.43;675;689;717;743;777;839;914;984;1040;1149;1456;9.48;14.86;0;0.77;0;3.15;0;1.47;6.64;90.61;0;66.34749603;15.09966946;504462;7358647
15600005000;1859;Reinfosshei;2989.059;3160.32;9.56;0;11.07;37;292;461;611;698;773;855;941;1032;1142;1737;66.84;85.1;0.4;1.21;0;0.14;17.71;7.14;3.35;63.94;0.19;66.35279083;14.32598019;469832;7359397
15600004000;1858;Nevernes;1733.08;1904.14;11.39;0;13.75;65;472;631;695;753;813;883;956;1032;1122;1737;59.23;68.01;0.25;1.08;0;0.05;15.37;1;2.63;75.57;0.14;66.37877655;14.56973553;480762;7362197
15700003000;1887;Vassvatn;16.33;16.33;117.29;48.96;128.58;108;161;192;244;348;471;532;615;704;826;1160;3.84;4.46;0.61;0.24;0;6.14;29.09;0;10.96;57.2;0;66.3926239;13.18076897;418712;7364857
15600022000;1872;Ramnåga;68.32;68.32;28.23;0;33.48;74;263;308;370;426;470;525;581;650;745;1077;10.66;19.35;0.32;4.74;0;0.52;29.85;0;4.19;42.45;0;66.42222595;13.96404743;453762;7367357
15600027000;1876;Leiråga;44.089;44.09;40.31;0;51.89;78;275;346;393;442;494;573;686;855;1015;1287;11.1;11.27;0;0.41;0;0.12;3.52;12.5;2.63;65.64;0;66.44085693;13.85676384;449012;7369517
15600010000;1863;Berget;210.63;210.63;21.13;0;27.35;60;291;423;589;700;804;915;1021;1164;1291;1587;27.28;36.67;0.05;0.46;0;0.79;8.11;34.94;3.12;46.15;0;66.45671844;13.87847614;450012;7371267
15600013000;1864;Bjørnfoss;306.1;306.1;22.83;0;25.36;73;441;644;741;838;924;998;1069;1145;1221;1565;35.84;40.99;0;0.11;0;0.13;7.61;20.39;1.39;65.9;0;66.47236633;14.31601429;469532;7372730
15600008000;1861;Svartisdal;121.98;121.98;36.8;0;36.08;71;237;421;600;782;902;1010;1113;1208;1280;1578;14.83;20.4;0;0.1;0;3.86;6.04;45.85;6.31;32.15;0;66.48088837;14.22482681;465482;7373727
15600009000;1862;Krokstrand;621.259;792.69;19.45;0;19.13;248;632;682;726;771;818;875;936;1010;1094;1456;35.75;39;0.07;1.21;0;0.08;11.11;0.19;2.46;83.68;0;66.50030518;14.98835754;499482;7375677
15600020000;1870;Nylaenget;374.55;374.55;13.99;0;16.94;196;606;706;763;835;910;970;1034;1088;1183;1737;39.7;58.72;0;1.03;0;0.96;5.09;0.43;5.46;83.32;0;66.51411438;14.97193718;498752;7377217
15600024000;1874;Bogvatn;36.21;36.21;24.24;0;76.83;660;665;735;814;904;985;1036;1091;1156;1223;1556;8.96;8.47;0;0;0;8.88;0;19.97;9.39;70.64;0;66.63243866;14.49461555;477632;7390497
15900003000;1893;Engabrevatn;53.33;53.33;633.67;24.59;524;8;428;782;979;1082;1168;1220;1266;1329;1371;1576;10.52;1.53;0;0;0;2.25;4.11;74.7;2.25;15.99;0.08;66.70259094;13.7468977;444698;7398782
15900004000;1894;Koppskjærelv;2.289;2.29;88.91;40.71;130.88;74;204;290;320;348;367;389;419;448;480;545;2.85;3.36;0;1.75;0;0.12;76.42;0;0.44;19.21;0;66.72735596;13.58307934;437532;7401697
15600034000;1880;Søndre Bjøllåvatn;157.26;157.26;139.66;0;137.65;632;706;752;827;896;952;996;1057;1105;1185;1737;14.62;1.62;0;0.38;0;5.38;0;0.24;10.84;88.23;0;66.73866272;15.02342033;501032;7402247
16300008000;1941;Lønselv;337.523;344.7;11.99;0;19.95;415;681;754;838;915;969;1018;1068;1124;1200;1528;21.64;28.69;0;0.75;0;0.01;7.73;1.14;0.89;84.7;0.01;66.74107361;15.47729111;521032;7402597
16100006000;1917;Staupåga;18.47;18.47;67.12;36.44;93.03;220;758;832;916;976;1039;1093;1149;1218;1266;1428;6.82;8.27;0;0.05;0;0.21;2;7.96;1.03;85.44;0;66.75414276;14.56491566;480838;7404040
16300007000;1940;Kjemåvatn;36.48;36.48;31.88;19.52;33.43;626;636;723;790;874;935;975;1044;1094;1221;1501;10.25;13.32;0;1.21;0;7.14;4.88;0.41;7.48;82.73;0;66.76916504;15.4087677;517992;7405707
16300005000;1938;Junkerdalselv;314.051;421.98;25.87;0;24.54;117;486;620;691;752;834;943;1042;1139;1234;1695;29.78;40.4;0.39;0.68;0;0.02;18.29;0.55;2.08;66.89;0;66.81479645;15.4106884;518043;7410794
16100007000;1918;Tollåga;225.05;225.05;15.15;18.85;14.73;374;561;637;666;716;795;871;922;980;1035;1411;27.84;45.32;0.09;2.84;0;0.01;12.09;0.11;2.05;71.87;0;66.89692688;14.85456753;493632;7419897
16300009000;1942;Russånes;925.128;1040.23;14.69;0;17.17;47;463;613;687;756;847;946;1024;1103;1203;1741;41.84;54.48;0.25;0.92;0;0.02;18.7;0.67;1.84;68.75;0.02;66.91909027;15.32075214;514032;7422397
16300006000;1939;Jordbrufjell;69.91;69.91;14.17;0;22.27;434;496;532;583;617;664;703;737;778;840;1013;14.69;21.64;0;6.01;0;1.38;18.72;0;4.69;62.71;0;66.93560028;15.14655399;506407;7424209
16300010000;1943;Sauelv;127.06;127.06;27.52;0;42.81;60;398;486;575;648;711;795;920;1046;1165;1621;20.59;26.84;0.39;3.16;0;0.06;28.77;0.26;2.38;62.21;0;66.9629364;15.37399864;516332;7427297
16100001000;1912;Ågnes;195.86;195.86;20.77;25.27;16.82;60;297;387;442;504;538;585;630;687;784;1186;22.33;32.1;0.02;0.83;0;34.1;11.64;1.92;10.74;58.06;0;66.96733856;14.14181995;462532;7427997
16100018000;2328;Vm Selfoss Bru;788.34;788.34;7.71;0;16.05;10;308;456;559;631;697;795;893;984;1079;1626;39.27;51.34;0.89;2.03;0;0.02;26.18;6.34;1.92;57.36;0.01;66.99697876;14.69844818;486850;7431075
16100003000;1914;Arstadfossen;198.8;198.8;22.27;36.29;28.58;24;363;545;625;673;737;803;898;1002;1117;1392;22.5;28.61;0.06;0.41;0;0.73;12.96;11.24;7.02;64.09;0.02;67.01565552;14.54633617;480232;7433197
16200003000;1932;Skarsvatn;145.39;145.39;15.6;0;14.62;162;287;373;431;475;520;556;576;600;630;831;18.32;29.78;1.04;6.03;0;0.76;44.13;0;6.16;35.27;0.04;67.08398438;14.98147392;499195;7440743
16200001000;1931;Oldereidvatn;49.93;49.93;24.9;0;32.35;41;320;388;398;400;422;450;492;564;655;1113;12.62;17.99;0.04;4.23;0;9.11;48.67;0.28;16.76;25.96;0;67.14454651;14.91998959;496532;7447497
16600013000;1972;Vallvatn;53.04;53.04;48.96;19.06;49.09;31;37;40;46;60;97;168;278;390;459;813;8.74;11.28;11.45;13.95;0;2.71;48.8;0;4.21;8.61;0.02;67.34408569;15.53597832;523039;7469838
16600003000;1966;Andkilvatn;244.344;249.24;30.81;27.88;27.94;3;317;671;701;792;843;899;949;1005;1084;1418;23.85;40.46;0.02;0.54;0;5.37;7.8;7.64;14.57;66;0;67.39510345;15.70249176;530132;7475597
16600001000;1965;Lakshola;211.729;230.79;18.89;28.56;24.95;11;300;344;407;451;500;554;617;707;882;1325;19.41;27.18;0;0.24;0;1.83;14.08;1.2;12.43;48.75;0;67.45069122;15.76215744;532615;7481824
16500013000;2329;Nye Strandå;24.06;24.06;13.83;0;33.52;15;20;34;55;115;179;244;306;392;520;932;7.06;10.41;0.21;10.35;0;1.95;30.76;0;3.57;22.11;0;67.53910828;14.87047958;494478;7491486
16700002000;1973;Sørfjordvatn;102.879;109.31;21.6;25.55;28.07;82;326;446;539;622;622;649;688;756;836;1324;18.54;27.84;0;0.24;0;7.88;7.36;0.3;21.22;59.81;0;67.56950378;15.9002552;538332;7495147
16700004000;1975;Sjøfossen;73.82;73.82;19.31;33.23;33.05;4;111;189;273;316;359;419;508;600;714;1203;12.21;18.89;0.54;1.61;0;2.07;34.87;0;7;48.5;0;67.57257843;15.73359394;531232;7495397
16700003000;1974;Kobbvatn;387.14;387.14;21.29;33.35;20.88;8;231;384;535;621;680;733;799;882;994;1511;24.08;42.09;0.04;0.56;0;2.79;15.62;2.29;13.89;63.28;0.01;67.62386322;15.98928928;542026;7501265
16800002000;1987;Mørsvik Bru;31.23;31.23;36.51;34.15;40.36;76;148;241;313;339;367;407;471;586;779;1094;6.93;10.09;0.03;3.97;0;4.28;52.39;0;9.35;28.53;0;67.7157135;15.87357044;536966;7511430
17100007000;2000;Ravggajokka;69.765;74.96;9.15;26.93;13.29;375;571;620;665;710;749;798;839;893;968;1269;15.6;22.45;0;0.49;0;1.02;0.41;0;4.71;93.58;0;67.77952576;16.47930336;562425;7519030
17100005000;1999;Draugselv;100.38;105.58;14.62;25.74;25.75;55;518;563;609;658;708;754;808;860;941;1269;17.73;27;0;0.6;0;0.92;1.32;0;6.17;89.07;0;67.80268097;16.51414871;563832;7521646
17100004000;1998;Stabburselv;61.83;67.34;61.39;29.48;69.4;15;421;575;632;694;762;787;840;907;1031;1371;11.38;16.64;0;0.15;0;1.72;5.12;0.16;10.68;78.38;0;67.81209564;16.51475716;563832;7522696
16800001000;1986;Storvatn;71.3;71.3;25.61;46.52;39.37;56;61;139;246;361;453;516;610;696;809;1170;11.05;14.05;0;0.74;0;9.41;20.62;0.42;12.92;56.3;0;67.84658813;15.50397968;521208;7525847
17100003000;1997;Vasja;39.44;39.44;21.12;38.78;36.81;87;431;470;530;590;636;685;733;795;890;1277;13.69;17.23;0;0.3;0;4.45;9.69;0;8.14;81.44;0;67.86593628;16.30415916;554832;7528496
17000001000;1989;Rotvatn;242.08;242.08;18.5;29.79;14.36;46;110;181;280;328;407;496;555;640;760;1230;23.6;34.96;0.07;2.64;0;5.45;31.54;0.34;14.98;42.06;0;67.89758301;15.85813999;536032;7531696
17300008000;2016;Coarveij;34.636;62.83;13.94;0;20.16;908;930;949;967;988;1021;1074;1139;1225;1329;1579;9.85;13.3;0;0;0;13.63;0;4.22;13.97;81.66;0;68.01673126;17.8962822;620954;7547565
17300003000;2011;Sørelv Bru;263.67;371.68;87.22;0;82.16;70;692;840;882;934;968;1009;1060;1129;1233;1675;34.29;8.33;0.01;0.07;0;0.91;1.58;1.7;11.62;83.71;0;68.16733551;17.5438118;605550;7563696
17300001000;2009;Kjårdaelv;62.013;71.03;55;0;57.14;6;538;612;685;730;783;866;952;1023;1114;1482;12.61;15.66;0.06;0;0;2.31;5.8;4.25;7.91;80.47;0;68.18746185;17.31800079;596100;7565570
17300022000;2022;Gamnes;642.171;797.59;15.3;0;16.51;42;684;787;862;926;982;1044;1119;1208;1325;1880;36.44;55.05;0.02;0.35;0;0.33;2.47;6.11;7.98;81.63;0;68.1940918;17.55452919;605871;7566696
18000001000;2052;Grønlivatn;7.52;7.52;64.27;0;60.51;68;113;166;207;237;260;283;306;344;399;722;3.67;4.88;0;5.94;0;1.77;24.97;0;3.78;58.57;0;68.2036438;13.73678303;447659;7566105
17200005000;2005;Melkedal;92.15;92.15;24.96;27.77;27.36;55;97;172;254;322;412;485;545;643;766;1433;15.58;25.32;0.13;3.28;0;5.64;33.49;0.88;12.57;37.44;0.01;68.25494385;16.71439552;570873;7572274
17400003000;2026;Øvstevatn;28.442;28.44;98.53;0;82.82;275;334;430;504;605;727;830;919;1009;1148;1541;6.65;7.69;0.53;2.81;0;0.9;23.66;6.08;1.62;54.29;0;68.34785461;17.48968887;602493;7583718
17700004000;2047;Sneisvatn;29.25;29.25;21.91;0;18.6;18;88;138;191;235;302;387;457;556;624;970;7.28;9.68;0;1.71;0;2.27;19.97;0;10.05;54.5;0;68.40743256;15.70544243;528971;7588456
17600001000;2043;Myklebostad;17.79;17.79;69.31;29.58;67.53;5;22;107;176;262;357;389;425;534;692;1008;6.32;7.39;1.29;4.33;0;4.5;24.51;0;10.68;47.5;0;68.42889404;16.35598564;555632;7591296
17400011000;2336;Taraldsvikelv;2.84;2.84;239.94;0;262.96;292;473;556;617;677;752;825;888;961;1042;1262;2.62;2.29;0;0.35;0;0;15.14;0;0.35;82.75;0;68.43661499;17.48148537;601757;7593594
17400009000;2032;Nygård;150.11;150.18;17.52;0;30.37;3;300;351;395;444;485;525;562;620;728;1399;17.8;25.94;0.07;2.36;0;0.24;22.96;0.87;10.36;53.65;0;68.46012878;17.70326996;610732;7596596
17800001000;2048;Langvatn;18.41;18.41;74.38;52.76;64.59;27;41;86;154;249;356;409;476;572;687;1091;5.89;6.94;0.54;4.56;0;6.29;31.88;0;8.42;50.08;0;68.61923981;15.71248531;528987;7612074
18900001000;2058;Skodbergvatn;107.31;107.31;27.24;32.55;31.92;101;111;162;216;264;318;413;533;671;827;1280;10.08;17.06;0.09;7.49;0;8.58;40.28;1;10.49;38.3;0;68.6202774;17.25029564;591532;7613696
18900002000;2059;Øyvatn;47.42;47.42;31.49;34.73;39.29;142;214;280;342;396;502;563;644;719;816;1298;9.58;15.41;0.02;3.08;0;3.44;19.93;0.06;9.22;65.54;0;68.6223526;16.77584648;572232;7613296
18900003000;2060;Tennevikvatn;85.41;85.41;24.14;30.29;29.5;40;129;161;202;249;315;394;517;621;740;1298;12.91;24.26;0.43;4.16;0;3.26;39.21;0.04;8.51;43.3;0;68.64489746;16.72234535;569986;7615747
19000002000;2063;Storfossen;52.693;52.69;14.83;54.23;28.75;194;258;282;328;375;438;511;596;697;800;1328;8.62;13.22;0.83;6.71;0;1.27;37.88;0;5.82;41.9;0;68.65135193;17.70337868;609800;7617900
18500001000;2055;Gåslandsvatn;7.7;7.7;5.54;11.29;7.01;16;16;16;22;29;34;37;40;48;58;171;4.6;5.6;2.37;33.55;0;19.68;27.37;0;22.1;0.26;0;68.67282867;14.62927341;484953;7617927
19600005000;2076;Insetvatn;1274.13;1388.44;1.65;0;5.89;301;495;540;600;661;736;825;895;978;1104;1656;65.67;104.37;0.01;3.99;0;6.23;14.98;0.43;11.15;64.9;0;68.67501831;18.74609947;651952;7622755
19000001000;2062;Tjuvskjer;7.997;8;85.91;53.49;89.42;7;247;313;345;372;406;450;484;553;615;960;6.18;7.24;0;8.25;0;0.55;55;0;2.9;29;0;68.72122192;17.4136467;597732;7625196
19600012000;2082;Lundberg;241.74;246.53;12.84;89.62;23.03;93;345;553;682;779;868;954;1052;1158;1289;1564;24.71;28.66;0.57;0.41;0;0.01;16.36;2.15;0.6;76.95;0;68.72235107;18.54941559;643677;7627552
19600013000;2083;Bardujord;68.5;68.5;34.82;97.67;42.76;99;423;527;612;697;779;861;943;1042;1179;1522;12.71;15.93;0;0.32;0;0;10.92;2.63;0.01;80.99;0;68.81144714;18.55365562;643274;7637482
19100002000;2065;Øvrevatn;524.859;526.02;130.45;55.79;126.98;8;137;233;340;449;564;680;786;886;1044;1503;36.82;2.04;2.02;2.54;0;0.6;35.22;0.55;2.75;52.3;0.01;68.85762024;17.94107437;618348;7641320
21200026000;2289;Suohpatjohka;592.898;604.39;1.4;0;2.38;0;364;372;379;387;396;405;419;438;463;609;36.61;75.17;0.05;21.83;0;1.04;55.27;0;11.13;8.32;0;68.95555115;23.08893013;823363;7670754
19600011000;2081;Lille Rostavatn;538.51;638.38;524.79;0;530.88;102;338;570;647;686;740;798;867;946;1050;1586;46.86;1.87;0.22;1.9;0;3.64;12.91;0.44;7.14;70.77;0;69.02297974;19.58108139;682880;7663756
19600035000;2094;Malangsfoss;3005.63;3110.65;7.48;0;5.69;23;215;397;547;647;713;782;859;950;1084;1714;80.7;109.47;0.67;2.06;0;0.24;24.31;0.73;3.78;64.17;0.02;69.03492737;18.65833664;646006;7662611
19300002000;2067;Skøvatn ndf.;94.91;94.91;19.27;31.22;22.73;180;193;260;336;413;476;543;609;689;834;1212;11.86;17.3;1.04;3.35;0;3.58;29.67;0.22;7.35;53.78;0;69.04866028;17.94038391;617300;7662600
20500002000;2112;Gardebor;149.629;219.78;9.7;9.85;14.14;456;567;641;692;734;782;832;876;935;999;1407;23.76;34.52;0;0.56;0;3.17;5.39;0;6.49;83.46;0;69.16966248;20.74550056;727729;7683963
20500001000;2111;Helligskogen;292.92;365.06;12.88;11.54;15.84;324;563;665;721;788;834;875;922;975;1041;1407;28.16;42.05;0;0.43;0;1.07;5.69;0;5.57;64.56;0.01;69.20723724;20.68814087;725073;7687926
24600008000;2213;Vaggatem;187.07;244.96;2.93;0;3.95;68;115;121;130;137;146;158;172;184;200;327;26.38;31.91;0;8.25;0;3.48;76.22;0;13.55;0.07;0;69.21239471;29.13629913;1055643;7742538
19600007000;2077;Fiskeløsvatn;54.419;54.42;12.69;22.94;11.96;158;158;161;190;228;273;318;402;546;713;1233;10.18;15.56;1.21;4.6;0;15.61;36.2;0;20.4;30.91;0;69.2629776;18.88206673;653316;7688545
20500003000;2113;Skibotn Bru;655.08;727.22;12.39;20.17;14.13;8;405;557;673;746;819;869;923;986;1062;1463;52.15;69.61;0.01;0.59;0;0.33;13.77;0.17;5.28;65.12;0.03;69.36506653;20.2737484;707197;7704001
24600009000;2214;Sametielv;254.18;255.69;3.51;0;3.82;43;69;95;103;119;131;145;158;174;196;292;23.36;39.54;0;16.77;0;1.94;51.33;0;13.8;13.27;0;69.40015411;29.71704483;1073079;7768353
19400001000;2068;Lysevatn;129.68;129.68;13.12;30.45;14.43;22;62;140;207;237;292;344;407;493;608;971;13.25;18.8;0.22;7.44;0;4.32;34.11;0;11;43.83;0;69.41201782;17.86190033;612279;7702931
23400005000;2184;Njalmigoaika;2247.25;2256.83;2.43;0;2.85;130;306;340;360;376;389;401;415;432;459;617;87.73;133.51;0.02;16.75;0;0.1;54.28;0;4.58;19.4;0;69.41931915;25.15832329;896949;7734170
21200010000;2148;Masi;5543.98;5620.81;1.31;14.53;1.67;0;370;390;413;434;450;471;494;525;595;1085;92.42;154.3;0.05;16.97;0;0.28;35.4;0;7.16;31.06;0.01;69.42004395;23.63503647;837785;7725086
23400013000;2189;Vækkava;2079.25;2079.25;-999;0;-999;178;349;377;390;400;414;426;440;457;484;1020;50.94;-999;0;10.67;0;0.87;31.71;0;10.53;37.48;0;69.4263916;24.93833733;888291;7733535
20600002000;2120;Holm Bru;344.6;344.6;30.05;19.53;28.29;26;701;783;847;890;925;966;1004;1042;1083;1323;25.82;39.58;0.37;0.36;0;1.78;4.68;0;8.59;85.01;0.01;69.47787476;20.88022995;729757;7718702
24600001000;2208;Bjørnvatn;987.21;18109.95;-999;0;-999;20;119;136;159;181;210;249;281;310;349;625;246.67;-999;0.42;10.64;0;5.52;57.86;0;10.85;0.8;0.12;69.51902008;30.11146545;1084905;7785019
20600003000;2121;Manndalen Bru;200.48;200.48;30.6;36.73;30.53;20;237;508;699;849;933;976;1019;1072;1135;1316;25.58;33.9;2.14;0.27;0;0.04;14.98;0;2.27;77.28;0;69.52388763;20.52561951;715471;7722523
20800003000;2126;Svartfossberget;1918.95;1932.29;5.57;13.85;4.62;90;464;510;562;622;673;717;760;806;873;1361;64.66;83.28;0.04;4.26;0;0.04;15.19;0;2.76;72.78;0;69.52854156;21.38166046;748701;7726291
23400002000;2181;Jiesjokka;460.53;460.53;-999;0;-999;380;390;391;401;413;425;437;451;474;514;1020;31.19;-999;0;4.86;0;14.65;3.92;0;22.69;53.14;0;69.56561279;24.38817787;864567;7745499
19700010000;2286;Ersfjordelva;18.63;18.63;35.39;0;47.97;91;143;161;193;260;371;453;538;612;711;1006;5.77;8.55;0;7.46;0;0.98;14.98;0;3.7;63.39;0.11;69.68038177;18.59930038;639422;7734340
24400002000;2207;Neiden;596.18;2947.19;1.7;0;2.56;32;117;142;170;197;212;230;250;270;295;440;87.54;141.27;0.02;19.01;0;0.64;58.96;0;12.43;7.88;0.11;69.70071411;29.32130814;1050092;7797397
20900001000;2127;Njemenjaikafoss;172.372;172.37;-999;18.64;-999;67;488;534;564;602;635;669;707;745;800;1033;30.68;-999;0;1.33;0;1.94;2.71;0;7.26;86.85;0;69.71370697;22.12760925;775258;7750032
20300002000;2103;Jægervatn;92.48;92.48;30.36;0;29.59;3;20;66;109;169;263;386;518;702;956;1533;13.67;18.18;0.29;5.92;0;7.79;29.67;7.39;9.91;43.88;0;69.73168182;19.86212158;687806;7743432
20900003000;2129;Kvænangselv Bru;310.664;310.66;-999;12.16;-999;10;390;557;590;606;615;625;642;670;716;910;33.57;-999;0;4.91;0;0.28;7.52;0;6.01;78.51;0;69.73335266;22.14109993;775521;7752271
21200027000;2290;Eibyelva v/Hammeren;622.51;624.18;4.54;0;7.02;105;385;421;450;470;488;505;528;564;613;782;40.65;52.9;0;6.15;0;0.54;22.22;0;7.2;55.13;0;69.79905701;23.24104881;816763;7764890
21200011000;2149;Kista;6104.98;6181.8;1.06;14.93;2.24;0;368;389;412;433;449;469;492;522;585;1085;133.09;211.67;0.06;16.08;0;0.39;35.29;0;7.23;32.22;0.01;69.82630157;23.51680565;826880;7769359
22400001000;2168;Skoganvarre;942.31;942.31;6.78;0;9.36;69;221;273;300;319;345;382;433;483;554;1043;31.62;67.69;0.01;6.47;0;0.98;41.75;0;6.13;40.76;0;69.83699036;25.08542061;886448;7779725
20900002000;2128;Baddern;137.243;137.24;-999;19.36;-999;7;427;497;538;570;604;631;664;698;740;911;22.51;-999;0;1.16;0;0.52;4.78;0;5.97;87.03;0;69.84306335;22.0230999;769579;7763906
21200007000;2145;Lille Mattisvatn;319.02;319.02;22.23;16.28;20.63;64;335;450;506;551;599;631;656;688;734;937;30.24;32.09;0.25;1.82;0;0.42;14.47;0;5.45;76.65;0;69.89417267;23.01636124;806779;7774266
20800002000;2125;Oksfjordvatn;265.79;265.6;-999;35.32;-999;8;129;282;408;493;548;613;689;802;968;1335;27.66;-999;0.34;0.87;0;2.16;21.36;0.66;4.46;66.4;0.01;69.90021515;21.37681007;744188;7767523
21000001000;2135;Øvrefoss;169.961;169.96;-999;21.96;-999;86;253;400;462;540;597;634;660;696;765;989;19.79;-999;0.24;0.85;0;0.23;11.58;0;5.63;78.9;0.01;69.92118073;22.07977295;770736;7772819
21200048000;2156;Sagafoss;233.67;233.67;12.89;11.94;12.26;21;160;278;350;385;416;443;474;504;530;633;32.59;41.79;1.36;4.51;0;0;27.58;0;5.21;51.17;0.17;69.95549774;23.4087429;820772;7783072
20000004000;2101;Skogsfjordvatn;136.01;136.01;27.48;26.84;21.06;19;20;84;139;195;243;280;353;450;574;1047;17.28;20.42;0.42;1.29;0;10.12;21.25;0;14.8;49.73;0;69.98092651;19.10412407;656700;7769022
21200049000;2157;Halsnes;144.764;144.89;27.53;27.99;23.41;30;196;316;382;459;531;614;686;741;825;1146;20.5;25.47;0.12;1.19;0;0;12.77;0;3.52;73.9;0;70.02643585;22.94163704;802014;7788532
23400018000;2194;Polmak nye;9645.4;14161.4;1;0;1.61;10;235;275;300;324;347;370;392;417;452;1064;218.84;310.75;0.21;11.59;0;0.03;52.48;0;4.1;19.66;0.08;70.07034302;28.01600838;991883;7826523
20700001000;2123;Fagertun;15.48;15.48;46.67;48.64;68.25;19;104;168;225;257;302;357;422;511;609;903;5.21;5.81;0;6.14;0;0.05;3.04;0;0.58;72.55;0;70.07662964;20.48975372;708536;7783820
21300002000;2160;Leirbotnvatn;135.466;135.47;17.81;16.84;19.82;161;308;380;415;437;457;484;514;543;572;716;15.24;24.38;0;2.2;0;1.09;12.88;0;5.6;76.55;0;70.10667419;23.55344009;823898;7800555
24100001000;2203;Bergeby;247.58;247.58;4.65;0;7.79;24;153;175;200;219;235;258;305;360;408;470;26.71;36.45;0.02;12.71;0;0.05;18.45;0;2.26;54.13;0;70.15844727;28.88694382;1022078;7843416
22300001000;2166;Stabburselv;1067.33;1067.33;4.72;11.28;6.42;13;300;359;388;414;441;475;518;567;648;1136;56.99;90.33;0;3.21;0;0.08;10.11;0;3.58;78.35;0;70.1763382;24.88330078;872638;7815865
22500001000;2170;Børselv;871.27;871.27;6.55;0;10.56;13;152;203;265;344;430;492;535;567;604;1001;42.48;73.89;0.04;2.53;0;0.01;15.06;0;3.09;73.73;0;70.31899261;25.59143066;896346;7836062
22800002000;2172;Kunes;678.22;678.22;12.06;11.62;10.48;39;174;241;305;371;484;536;573;609;656;1002;42.92;48.88;0;0.72;0;0.12;6.52;0;3.28;80.44;0;70.32931519;26.40795135;926383;7842731
22900001000;2173;Adamsfjordfoss;710.57;710.57;5.97;0;5.72;41;213;249;278;302;326;349;381;440;540;796;35.95;63.85;0;2.35;0;0.53;6.12;0;9.18;79.3;0;70.38186646;26.6337204;933613;7850100
23400004000;2183;Smalfjord;30.05;30.05;7.66;0;13.32;20;59;85;103;111;123;142;164;196;240;325;6.81;8.71;0;6.66;0;4.19;56.57;0;16.64;6.66;0;70.41915131;28.04138756;984519;7864846
21300003000;2161;Skaidi;306.731;306.73;6.32;7.3;6.85;63;233;277;300;316;328;337;352;370;393;524;26.12;48.1;0;14.7;0;0.41;5.49;0;5.1;66.82;0;70.43174744;24.52372742;854728;7841879
22900002000;2174;Nedre Friarfjordvatn;128.22;128.22;7.66;0;11.33;18;177;207;207;229;253;277;305;336;374;509;18.85;34.99;0;1.02;0;8.59;7.38;0;22.1;52.72;0;70.45057678;26.90695;942187;7859612
21300004000;2162;Kvalsund;124.8;124.8;21.52;22.61;22.54;19;152;235;279;316;355;401;456;508;555;707;13.85;20.01;0.01;0.65;0;1.04;0.67;0;6.63;84.58;0.05;70.48683929;23.95331192;832718;7844730
23700001000;2200;Båtsfjord;21.93;21.93;22;0;20.51;142;176;213;238;262;285;319;365;412;444;480;5.95;6.49;0;0;0;1.43;0;0;0;95.76;0;70.56360626;29.71187782;1041686;7894752
1500018000;564;Bommestad Bru;5535.49;5535.49;4.3;17.07;3.86;7;191;378;525;726;871;1018;1136;1206;1255;1537;210.92;365.8;3.2;4.99;0;0.43;49.66;0;6.64;31.86;0.22;59.08755897;10.06710989;217479;6560246
13900011000;1777;Tunnsjøplass;472.31;472.31;3.81;0;4.36;220;358;360;372;433;477;526;578;637;706;1054;34.29;42.66;0.34;6.33;0;18.89;33.13;0;25.85;22.71;0.01;64.73134649;12.98063868;403831;7180047
4200001000;1062;Fjellhaugvatn;153.6;153.6;18.43;31.97;21.97;375;620;736;802;874;960;1052;1154;1301;1469;1637;22.97;30.51;0;0.41;0;3.28;4.1;27.75;9.25;55.54;0.01;59.86787947;6.043427829;-548;6670638
13900008000;1774;Fiskumfoss;3295.396;3296.47;4.78;0;5.92;40;252;349;406;473;537;600;671;746;858;1675;105.63;159.17;0.4;7.42;0;0.68;30.04;0.05;8.59;42.93;0.02;64.73134649;12.98063868;403831;7180047
10900019000;2430;Ångårdsvatn magasin;86.68;86.68;24.43;0;34.66;583;620;732;829;913;1001;1080;1145;1216;1331;1684;13.56;16.81;0.97;5.01;0;3.86;18.83;0.13;4.64;68.19;0.01;62.67455626;9.168284482;201624;6962837
200481000;2363;Jora v/Nysetra;213.28;213.28;27.49;0;31.04;822;970;1182;1278;1362;1411;1449;1506;1590;1685;2070;22.4;26.19;0.01;1.25;0;0.41;7.09;0.95;4.98;83.13;0;62.19224449;8.920606954;183922;6910449
2500003000;865;Netland;895.52;895.52;7.44;24.16;9.92;340;675;760;824;863;900;932;981;1047;1136;1430;70.95;104.05;0.1;1.15;0;3.17;5.06;0;15.64;76.7;0.01;58.62655154;6.915646036;31233;6526778
7400002000;1286;Tya;290.97;290.97;12.88;25.01;27.74;114;1084;1084;1140;1207;1277;1337;1372;1416;1488;2143;27.29;46.15;0;0.38;0;7.95;2.73;2.45;18.62;74.39;0;61.31109844;7.83890889;117020;6818475
200231000;138;Dalsbygdens El.verk;346.89;346.89;10.69;13.13;13.58;615;720;761;805;846;895;935;975;1015;1073;1326;26.73;38.11;4.16;11.06;0;0.04;36.95;0;0.91;38.58;0.01;62.51104424;11.14152471;301383;6937049
13200003000;1752;Spakmo;246.276;246.28;13.73;23.4;11.82;20;132;156;193;237;272;315;354;387;429;626;27.69;30.13;4.78;11.33;0;3.9;54.66;0;9.19;13.77;0.04;63.6382219;10.12468217;258636;7065910
10900001000;1569;Litledalselv;329.12;329.12;29.36;0;35.71;119;850;910;989;1069;1146;1225;1291;1352;1449;1866;25.52;35.74;0;0.19;0;1.78;2.63;0.74;9.1;83.14;0.03;62.60877133;8.52306102;167953;6958690
11200003000;1598;Svorka;82.91;82.91;9.1;19.73;12.83;92;283;318;337;352;369;388;410;437;466;577;20.16;27.87;0.28;15.17;0;2;47.98;0;8.4;0.01;0;63.04504149;8.707728031;182149;7006187
1200064000;422;Haugastøl;384.2;384.2;-999;19.63;-999;985;1146;1185;1216;1246;1291;1341;1405;1453;1563;1930;33.27;-999;0;0.92;0;7.42;1.41;6.55;11.32;78.82;0.02;60.51043227;7.869492167;108942;6729481
7500002000;1305;Ytri Bru;369.47;369.47;43.7;33.91;36.46;39;971;1165;1270;1338;1383;1422;1478;1545;1630;2062;29.53;40.62;0.39;0.02;0;0.13;5.96;8.48;8.18;75.28;0;61.5064674;7.700098757;112055;6840965
10300006000;1537;Grøtta Bru;78.29;78.29;48.95;52.3;59.04;12;116;254;473;640;761;872;975;1118;1277;1724;15.69;22.53;3.45;1.55;0;0.08;29.17;3.26;1.19;59.6;0.08;62.57763473;7.815096017;131377;6959086
2000004000;781;Vikstølvatn;75.4;75.4;69.09;20.35;61.37;437;478;487;499;516;532;548;569;595;627;736;14.53;1.89;0.42;13.09;0;4.6;64.15;0;12.63;9.12;0;58.59208605;7.969831415;91804;6516047
12300011000;1677;Kistafoss;745.835;1037.46;9.34;9.38;13.52;336;719;739;771;817;864;912;967;1034;1142;1772;51.12;64.49;0.48;11.39;0;4.94;14.26;0.01;10.48;55.33;0.05;63.04552283;11.59970309;328094;6995210
10900011000;1574;Vindal;160.82;160.82;13.06;0;22.39;514;609;716;842;954;1054;1142;1220;1308;1388;1684;23;29.19;1.74;3.35;0;1.32;21.3;0.3;2.94;67.24;0.01;62.59753222;9.325593413;208902;6953561
1500001000;552;Labru;4285.02;4285.02;5.31;15.95;4.97;128;450;671;803;927;1036;1129;1185;1226;1270;1537;153.78;261.91;1.06;5.85;0;0.72;40.57;0;7.81;40.76;0.19;59.62099271;9.666815971;199344;6621288
3000001000;961;Moluf Bru;130.43;130.43;33.72;41.84;34.69;32;521;668;758;822;863;902;940;979;1020;1159;25.14;30.12;0.21;0.41;0;0.66;6.72;0;7.01;80.41;0;58.84297087;6.350570635;1696;6554848
11100003000;1588;Todalselv;206.93;206.93;32.64;40.38;35.74;18;448;615;748;815;883;944;1006;1079;1174;1620;21.3;29.12;0.39;0.97;0;0.27;15.45;0;3.75;74.55;0;62.80500051;8.73757353;181049;6979389
4600001000;1074;Øvrehuselv;36.98;36.98;177.78;33.19;170.95;95;867;1068;1162;1246;1318;1375;1444;1501;1552;1653;8.45;6.74;0;0.03;0;2.44;1.78;47;3.89;46.81;0;60.13528695;6.344577826;20120;6698001
1200080000;432;Strandefjord;1792.49;1792.49;-999;20.63;-999;355;545;719;835;907;967;1026;1111;1246;1391;1774;71.01;-999;4.6;5.91;0;1.65;36.81;0;8.33;34.91;0.12;60.96384151;9.28013041;190557;6772281
12700007000;1728;Ådalsvollen;100.589;131.4;8.28;12.42;10.47;308;437;482;503;525;546;565;589;611;648;766;16.04;25.6;0.15;26.52;0;2.38;30.61;0;6.67;22.03;0.01;63.66399908;12.05464845;354248;7062932
1600037000;627;Vinjevatn;906.79;906.79;12.14;27.91;11.55;466;752;864;921;984;1059;1123;1187;1258;1364;1720;64.12;85.47;0.48;1.84;0;1.22;32.8;0.5;10.41;51.28;0.03;59.58503607;7.914851016;100367;6626549
100037000;11;Kirkevatn;552.227;692.35;-999;0;-999;36;77;105;122;135;143;152;160;171;188;266;39.55;-999;9.33;7.02;0;2.8;73.47;0;9.88;0;0.21;58.89214425;11.52705859;299905;6533237
2500004000;866;Røynstad Bru;1142.21;1142.21;7.36;25.65;9.03;132;393;562;702;787;849;897;936;1016;1106;1431;97.07;136.85;0.54;2.1;0;1.92;14.98;0;13.4;65.45;0.01;58.38090808;6.951554981;30026;6499300
1200003000;384;Hen;4838.12;4838.12;-999;19.25;-999;147;377;543;678;798;863;924;989;1065;1265;1907;163.06;-999;3.03;8.45;0;1.07;52.16;0.01;6.8;21.77;0.1;60.21866188;10.22399821;235521;6685339
